{"type":"FeatureCollection","features":[{"type":"Feature","id":0,"geometry":{"type":"Point","coordinates":[88.100001609739792,69.329997115597621]},"properties":{"FID":0,"CITY_NAME":"Noril`sk","GMI_ADMIN":"RUS-TAY","ADMIN_NAME":"Taymyrskiy(Dolgano-Nenetskiy) avt.okrug","FIPS_CNTRY":"RS","CNTRY_NAME":"Russia","STATUS":"Other","POP_RANK":5,"POP_CLASS":"100,000 to 250,000","PORT_ID":0,"LABEL_FLAG":0}},{"type":"Feature","id":1,"geometry":{"type":"Point","coordinates":[86.217003607986129,69.450003115709393]},"properties":{"FID":1,"CITY_NAME":"Dudinka","GMI_ADMIN":"RUS-TAY","ADMIN_NAME":"Taymyrskiy(Dolgano-Nenetskiy) avt.okrug","FIPS_CNTRY":"RS","CNTRY_NAME":"Russia","STATUS":"Provincial capital","POP_RANK":7,"POP_CLASS":"Less than 50,000","PORT_ID":0,"LABEL_FLAG":0}},{"type":"Feature","id":2,"geometry":{"type":"Point","coordinates":[84.970998606825702,56.477997103628269]},"properties":{"FID":2,"CITY_NAME":"Tomsk","GMI_ADMIN":"RUS-TOM","ADMIN_NAME":"Tomskaya oblast'","FIPS_CNTRY":"RS","CNTRY_NAME":"Russia","STATUS":"Provincial capital","POP_RANK":3,"POP_CLASS":"500,000 to 1,000,000","PORT_ID":0,"LABEL_FLAG":0}},{"type":"Feature","id":3,"geometry":{"type":"Point","coordinates":[69.000003591951554,61.017003107855544]},"properties":{"FID":3,"CITY_NAME":"Khanty-Mansiysk","GMI_ADMIN":"RUS-KHM","ADMIN_NAME":"Khanty-Mansiyskiy avtonomnyy okrug","FIPS_CNTRY":"RS","CNTRY_NAME":"Russia","STATUS":"Provincial capital","POP_RANK":7,"POP_CLASS":"Less than 50,000","PORT_ID":0,"LABEL_FLAG":0}},{"type":"Feature","id":4,"geometry":{"type":"Point","coordinates":[86.599287608342166,67.493853113887582]},"properties":{"FID":4,"CITY_NAME":"Igarka","GMI_ADMIN":"RUS-KRA","ADMIN_NAME":"Krasnoyarskiy kray","FIPS_CNTRY":"RS","CNTRY_NAME":"Russia","STATUS":"Other","POP_RANK":7,"POP_CLASS":"Less than 50,000","PORT_ID":62730,"LABEL_FLAG":0}},{"type":"Feature","id":5,"geometry":{"type":"Point","coordinates":[69.216696592153369,54.883296102143078]},"properties":{"FID":5,"CITY_NAME":"Petropavlovsk","GMI_ADMIN":"KAZ-NKZ","ADMIN_NAME":"North Kazakhstan","FIPS_CNTRY":"KZ","CNTRY_NAME":"Kazakhstan","STATUS":"Provincial capital","POP_RANK":5,"POP_CLASS":"100,000 to 250,000","PORT_ID":0,"LABEL_FLAG":0}},{"type":"Feature","id":6,"geometry":{"type":"Point","coordinates":[73.25000159590968,55.062999102310442]},"properties":{"FID":6,"CITY_NAME":"Omsk","GMI_ADMIN":"RUS-OMS","ADMIN_NAME":"Omskaya oblast'","FIPS_CNTRY":"RS","CNTRY_NAME":"Russia","STATUS":"Provincial capital","POP_RANK":2,"POP_CLASS":"1,000,000 to 5,000,000","PORT_ID":0,"LABEL_FLAG":0}},{"type":"Feature","id":7,"geometry":{"type":"Point","coordinates":[69.402996592326872,53.273997100644308]},"properties":{"FID":7,"CITY_NAME":"Kokshetau","GMI_ADMIN":"KAZ-KKC","ADMIN_NAME":"Kokchetav","FIPS_CNTRY":"KZ","CNTRY_NAME":"Kazakhstan","STATUS":"Provincial capital","POP_RANK":5,"POP_CLASS":"100,000 to 250,000","PORT_ID":0,"LABEL_FLAG":0}},{"type":"Feature","id":8,"geometry":{"type":"Point","coordinates":[76.962996599367671,52.281999099720437]},"properties":{"FID":8,"CITY_NAME":"Pavlodar","GMI_ADMIN":"KAZ-PVL","ADMIN_NAME":"Pavlodar","FIPS_CNTRY":"KZ","CNTRY_NAME":"Kazakhstan","STATUS":"Provincial capital","POP_RANK":4,"POP_CLASS":"250,000 to 500,000","PORT_ID":0,"LABEL_FLAG":1}},{"type":"Feature","id":9,"geometry":{"type":"Point","coordinates":[71.43200159421653,51.1890030987025]},"properties":{"FID":9,"CITY_NAME":"Astana","GMI_ADMIN":"KAZ-TSL","ADMIN_NAME":"Tselinograd","FIPS_CNTRY":"KZ","CNTRY_NAME":"Kazakhstan","STATUS":"National and provincial capital","POP_RANK":4,"POP_CLASS":"250,000 to 500,000","PORT_ID":0,"LABEL_FLAG":0}},{"type":"Feature","id":10,"geometry":{"type":"Point","coordinates":[73.202634595865561,49.879206097482665]},"properties":{"FID":10,"CITY_NAME":"Karaganda","GMI_ADMIN":"KAZ-KRG","ADMIN_NAME":"Karaganda","FIPS_CNTRY":"KZ","CNTRY_NAME":"Kazakhstan","STATUS":"Other","POP_RANK":3,"POP_CLASS":"500,000 to 1,000,000","PORT_ID":0,"LABEL_FLAG":1}},{"type":"Feature","id":11,"geometry":{"type":"Point","coordinates":[67.709997590750135,47.781000095528555]},"properties":{"FID":11,"CITY_NAME":"Zhezkazgan","GMI_ADMIN":"KAZ-DZK","ADMIN_NAME":"Dzhezkazgan","FIPS_CNTRY":"KZ","CNTRY_NAME":"Kazakhstan","STATUS":"Provincial capital","POP_RANK":5,"POP_CLASS":"100,000 to 250,000","PORT_ID":0,"LABEL_FLAG":0}},{"type":"Feature","id":12,"geometry":{"type":"Point","coordinates":[78.378003600685503,45.012996092950644]},"properties":{"FID":12,"CITY_NAME":"Taldykorgan","GMI_ADMIN":"KAZ-TKG","ADMIN_NAME":"Taldy Kurgan","FIPS_CNTRY":"KZ","CNTRY_NAME":"Kazakhstan","STATUS":"Provincial capital","POP_RANK":5,"POP_CLASS":"100,000 to 250,000","PORT_ID":0,"LABEL_FLAG":0}},{"type":"Feature","id":13,"geometry":{"type":"Point","coordinates":[82.600002604617515,50.000004097595166]},"properties":{"FID":13,"CITY_NAME":"Ust'-Kamenogorsk","GMI_ADMIN":"KAZ-VKZ","ADMIN_NAME":"East Kazakhstan","FIPS_CNTRY":"KZ","CNTRY_NAME":"Kazakhstan","STATUS":"Provincial capital","POP_RANK":4,"POP_CLASS":"250,000 to 500,000","PORT_ID":0,"LABEL_FLAG":0}},{"type":"Feature","id":14,"geometry":{"type":"Point","coordinates":[86.054004607834344,55.385001102610332]},"properties":{"FID":14,"CITY_NAME":"Kemerovo","GMI_ADMIN":"RUS-KEM","ADMIN_NAME":"Kemerovskaya oblast'","FIPS_CNTRY":"RS","CNTRY_NAME":"Russia","STATUS":"Provincial capital","POP_RANK":3,"POP_CLASS":"500,000 to 1,000,000","PORT_ID":0,"LABEL_FLAG":0}},{"type":"Feature","id":15,"geometry":{"type":"Point","coordinates":[82.943001604936995,55.032003102281578]},"properties":{"FID":15,"CITY_NAME":"Novosibirsk","GMI_ADMIN":"RUS-NOV","ADMIN_NAME":"Novosibirskaya oblast'","FIPS_CNTRY":"RS","CNTRY_NAME":"Russia","STATUS":"Provincial capital","POP_RANK":2,"POP_CLASS":"1,000,000 to 5,000,000","PORT_ID":0,"LABEL_FLAG":0}},{"type":"Feature","id":16,"geometry":{"type":"Point","coordinates":[87.170004608873711,53.700003101041062]},"properties":{"FID":16,"CITY_NAME":"Novokuznetsk","GMI_ADMIN":"RUS-KEM","ADMIN_NAME":"Kemerovskaya oblast'","FIPS_CNTRY":"RS","CNTRY_NAME":"Russia","STATUS":"Other","POP_RANK":3,"POP_CLASS":"500,000 to 1,000,000","PORT_ID":0,"LABEL_FLAG":0}},{"type":"Feature","id":17,"geometry":{"type":"Point","coordinates":[83.750004605688588,53.350002100715088]},"properties":{"FID":17,"CITY_NAME":"Barnaul","GMI_ADMIN":"RUS-ALT","ADMIN_NAME":"Altayskiy kray","FIPS_CNTRY":"RS","CNTRY_NAME":"Russia","STATUS":"Provincial capital","POP_RANK":3,"POP_CLASS":"500,000 to 1,000,000","PORT_ID":0,"LABEL_FLAG":0}},{"type":"Feature","id":18,"geometry":{"type":"Point","coordinates":[85.967001607753303,51.954003099414962]},"properties":{"FID":18,"CITY_NAME":"Gorno-Altaysk","GMI_ADMIN":"RUS-GAL","ADMIN_NAME":"Respublika Altay","FIPS_CNTRY":"RS","CNTRY_NAME":"Russia","STATUS":"Provincial capital","POP_RANK":7,"POP_CLASS":"Less than 50,000","PORT_ID":0,"LABEL_FLAG":0}},{"type":"Feature","id":19,"geometry":{"type":"Point","coordinates":[80.235999602415887,50.417001097983515]},"properties":{"FID":19,"CITY_NAME":"Semipalatinsk","GMI_ADMIN":"KAZ-SMP","ADMIN_NAME":"Semipalatinsk","FIPS_CNTRY":"KZ","CNTRY_NAME":"Kazakhstan","STATUS":"Provincial capital","POP_RANK":4,"POP_CLASS":"250,000 to 500,000","PORT_ID":0,"LABEL_FLAG":1}},{"type":"Feature","id":20,"geometry":{"type":"Point","coordinates":[89.966997611478604,48.961998096628449]},"properties":{"FID":20,"CITY_NAME":"Olgiy","GMI_ADMIN":"MNG-BOL","ADMIN_NAME":"Bayan-Olgiy","FIPS_CNTRY":"MG","CNTRY_NAME":"Mongolia","STATUS":"Provincial capital","POP_RANK":7,"POP_CLASS":"Less than 50,000","PORT_ID":0,"LABEL_FLAG":0}},{"type":"Feature","id":21,"geometry":{"type":"Point","coordinates":[67.249998590321724,37.250001085720797]},"properties":{"FID":21,"CITY_NAME":"Termez","GMI_ADMIN":"UZB-SRK","ADMIN_NAME":"Surkhandar'ya","FIPS_CNTRY":"UZ","CNTRY_NAME":"Uzbekistan","STATUS":"Provincial capital","POP_RANK":6,"POP_CLASS":"50,000 to 100,000","PORT_ID":0,"LABEL_FLAG":0}},{"type":"Feature","id":22,"geometry":{"type":"Point","coordinates":[74.804004597356965,34.08100208276943]},"properties":{"FID":22,"CITY_NAME":"Srinagar","GMI_ADMIN":"IND-JAK","ADMIN_NAME":"Jammu & Kashmir","FIPS_CNTRY":"IN","CNTRY_NAME":"India","STATUS":"Provincial capital","POP_RANK":3,"POP_CLASS":"500,000 to 1,000,000","PORT_ID":0,"LABEL_FLAG":0}},{"type":"Feature","id":23,"geometry":{"type":"Point","coordinates":[74.871558597419863,31.630887080487582]},"properties":{"FID":23,"CITY_NAME":"Amritsar","GMI_ADMIN":"IND-PNJ","ADMIN_NAME":"Punjab","FIPS_CNTRY":"IN","CNTRY_NAME":"India","STATUS":"Other","POP_RANK":3,"POP_CLASS":"500,000 to 1,000,000","PORT_ID":0,"LABEL_FLAG":0}},{"type":"Feature","id":24,"geometry":{"type":"Point","coordinates":[74.340999596925741,31.545000080407604]},"properties":{"FID":24,"CITY_NAME":"Lahore","GMI_ADMIN":"PAK-PNJ","ADMIN_NAME":"Punjab","FIPS_CNTRY":"PK","CNTRY_NAME":"Pakistan","STATUS":"Provincial capital","POP_RANK":2,"POP_CLASS":"1,000,000 to 5,000,000","PORT_ID":0,"LABEL_FLAG":0}},{"type":"Feature","id":25,"geometry":{"type":"Point","coordinates":[77.166000599556725,31.104000079996894]},"properties":{"FID":25,"CITY_NAME":"Simla","GMI_ADMIN":"IND-HPR","ADMIN_NAME":"Himachal Pradesh","FIPS_CNTRY":"IN","CNTRY_NAME":"India","STATUS":"Provincial capital","POP_RANK":6,"POP_CLASS":"50,000 to 100,000","PORT_ID":0,"LABEL_FLAG":0}},{"type":"Feature","id":26,"geometry":{"type":"Point","coordinates":[76.784004599200983,30.737997079656026]},"properties":{"FID":26,"CITY_NAME":"Chandigarh","GMI_ADMIN":"IND-CHN","ADMIN_NAME":"Chandigarh","FIPS_CNTRY":"IN","CNTRY_NAME":"India","STATUS":"Provincial capital enclave","POP_RANK":4,"POP_CLASS":"250,000 to 500,000","PORT_ID":0,"LABEL_FLAG":1}},{"type":"Feature","id":27,"geometry":{"type":"Point","coordinates":[77.216661599603924,28.666665077726947]},"properties":{"FID":27,"CITY_NAME":"Delhi","GMI_ADMIN":"IND-DEL","ADMIN_NAME":"Delhi","FIPS_CNTRY":"IN","CNTRY_NAME":"India","STATUS":"Provincial capital","POP_RANK":1,"POP_CLASS":"5,000,000 and greater","PORT_ID":0,"LABEL_FLAG":1}},{"type":"Feature","id":28,"geometry":{"type":"Point","coordinates":[75.800997598285477,26.904996076086263]},"properties":{"FID":28,"CITY_NAME":"Jaipur","GMI_ADMIN":"IND-RJS","ADMIN_NAME":"Rajasthan","FIPS_CNTRY":"IN","CNTRY_NAME":"India","STATUS":"Provincial capital","POP_RANK":2,"POP_CLASS":"1,000,000 to 5,000,000","PORT_ID":0,"LABEL_FLAG":0}},{"type":"Feature","id":29,"geometry":{"type":"Point","coordinates":[77.411997599785849,23.229999072663645]},"properties":{"FID":29,"CITY_NAME":"Bhopal","GMI_ADMIN":"IND-MPR","ADMIN_NAME":"Madhya Pradesh","FIPS_CNTRY":"IN","CNTRY_NAME":"India","STATUS":"Provincial capital","POP_RANK":2,"POP_CLASS":"1,000,000 to 5,000,000","PORT_ID":0,"LABEL_FLAG":0}},{"type":"Feature","id":30,"geometry":{"type":"Point","coordinates":[77.216751599604009,28.568727077635728]},"properties":{"FID":30,"CITY_NAME":"New Delhi","GMI_ADMIN":"IND-DEL","ADMIN_NAME":"Delhi","FIPS_CNTRY":"IN","CNTRY_NAME":"India","STATUS":"National capital","POP_RANK":4,"POP_CLASS":"250,000 to 500,000","PORT_ID":0,"LABEL_FLAG":0}},{"type":"Feature","id":31,"geometry":{"type":"Point","coordinates":[68.416704591408319,32.85000008162298]},"properties":{"FID":31,"CITY_NAME":"Zareh Sharan","GMI_ADMIN":"AFG-PKT","ADMIN_NAME":"Paktika","FIPS_CNTRY":"AF","CNTRY_NAME":"Afghanistan","STATUS":"Provincial capital","POP_RANK":7,"POP_CLASS":"Less than 50,000","PORT_ID":0,"LABEL_FLAG":0}},{"type":"Feature","id":32,"geometry":{"type":"Point","coordinates":[73.060542595733239,33.718158082431515]},"properties":{"FID":32,"CITY_NAME":"Islamabad","GMI_ADMIN":"PAK-PNJ","ADMIN_NAME":"Punjab","FIPS_CNTRY":"PK","CNTRY_NAME":"Pakistan","STATUS":"National capital","POP_RANK":5,"POP_CLASS":"100,000 to 250,000","PORT_ID":0,"LABEL_FLAG":0}},{"type":"Feature","id":33,"geometry":{"type":"Point","coordinates":[73.043748595717574,33.605802082326875]},"properties":{"FID":33,"CITY_NAME":"Rawalpindi","GMI_ADMIN":"PAK-PNJ","ADMIN_NAME":"Punjab","FIPS_CNTRY":"PK","CNTRY_NAME":"Pakistan","STATUS":"Other","POP_RANK":3,"POP_CLASS":"500,000 to 1,000,000","PORT_ID":0,"LABEL_FLAG":0}},{"type":"Feature","id":34,"geometry":{"type":"Point","coordinates":[69.224004592160185,33.597999082319603]},"properties":{"FID":34,"CITY_NAME":"Gardez","GMI_ADMIN":"AFG-PAK","ADMIN_NAME":"Paktia","FIPS_CNTRY":"AF","CNTRY_NAME":"Afghanistan","STATUS":"Provincial capital","POP_RANK":7,"POP_CLASS":"Less than 50,000","PORT_ID":0,"LABEL_FLAG":0}},{"type":"Feature","id":35,"geometry":{"type":"Point","coordinates":[68.419998591411371,33.552000082276763]},"properties":{"FID":35,"CITY_NAME":"Ghazni","GMI_ADMIN":"AFG-GHZ","ADMIN_NAME":"Ghazni","FIPS_CNTRY":"AF","CNTRY_NAME":"Afghanistan","STATUS":"Provincial capital","POP_RANK":7,"POP_CLASS":"Less than 50,000","PORT_ID":0,"LABEL_FLAG":1}},{"type":"Feature","id":36,"geometry":{"type":"Point","coordinates":[73.083456595754569,31.408956080280902]},"properties":{"FID":36,"CITY_NAME":"Faisalabad","GMI_ADMIN":"PAK-PNJ","ADMIN_NAME":"Punjab","FIPS_CNTRY":"PK","CNTRY_NAME":"Pakistan","STATUS":"Other","POP_RANK":2,"POP_CLASS":"1,000,000 to 5,000,000","PORT_ID":0,"LABEL_FLAG":0}},{"type":"Feature","id":37,"geometry":{"type":"Point","coordinates":[68.366475591361535,25.380180074666171]},"properties":{"FID":37,"CITY_NAME":"Hyderabad","GMI_ADMIN":"PAK-SIN","ADMIN_NAME":"Sind","FIPS_CNTRY":"PK","CNTRY_NAME":"Pakistan","STATUS":"Other","POP_RANK":3,"POP_CLASS":"500,000 to 1,000,000","PORT_ID":0,"LABEL_FLAG":0}},{"type":"Feature","id":38,"geometry":{"type":"Point","coordinates":[72.666666595366394,23.200002072635712]},"properties":{"FID":38,"CITY_NAME":"Gandhinagar","GMI_ADMIN":"IND-GJR","ADMIN_NAME":"Gujarat","FIPS_CNTRY":"IN","CNTRY_NAME":"India","STATUS":"Provincial capital","POP_RANK":5,"POP_CLASS":"100,000 to 250,000","PORT_ID":0,"LABEL_FLAG":0}},{"type":"Feature","id":39,"geometry":{"type":"Point","coordinates":[72.566865595273441,23.039793072486503]},"properties":{"FID":39,"CITY_NAME":"Ahmadabad","GMI_ADMIN":"IND-GJR","ADMIN_NAME":"Gujarat","FIPS_CNTRY":"IN","CNTRY_NAME":"India","STATUS":"Other","POP_RANK":2,"POP_CLASS":"1,000,000 to 5,000,000","PORT_ID":0,"LABEL_FLAG":0}},{"type":"Feature","id":40,"geometry":{"type":"Point","coordinates":[76.912623599320767,43.255062091313448]},"properties":{"FID":40,"CITY_NAME":"Almaty","GMI_ADMIN":"KAZ-ALA","ADMIN_NAME":"Alma-Ata","FIPS_CNTRY":"KZ","CNTRY_NAME":"Kazakhstan","STATUS":"Provincial capital","POP_RANK":2,"POP_CLASS":"1,000,000 to 5,000,000","PORT_ID":0,"LABEL_FLAG":0}},{"type":"Feature","id":41,"geometry":{"type":"Point","coordinates":[74.770002597325288,42.879996090964141]},"properties":{"FID":41,"CITY_NAME":"Bishkek","GMI_ADMIN":"KGZ-BSK","ADMIN_NAME":"Bishkek","FIPS_CNTRY":"KG","CNTRY_NAME":"Kyrgyzstan","STATUS":"National and provincial capital","POP_RANK":3,"POP_CLASS":"500,000 to 1,000,000","PORT_ID":0,"LABEL_FLAG":1}},{"type":"Feature","id":42,"geometry":{"type":"Point","coordinates":[78.390000600696681,42.480000090591616]},"properties":{"FID":42,"CITY_NAME":"Karakol","GMI_ADMIN":"KGZ-ISK","ADMIN_NAME":"Issyk-Kul'","FIPS_CNTRY":"KG","CNTRY_NAME":"Kyrgyzstan","STATUS":"Provincial capital","POP_RANK":7,"POP_CLASS":"Less than 50,000","PORT_ID":0,"LABEL_FLAG":0}},{"type":"Feature","id":43,"geometry":{"type":"Point","coordinates":[75.997998598468939,41.425002089609066]},"properties":{"FID":43,"CITY_NAME":"Naryn","GMI_ADMIN":"KGZ-NRN","ADMIN_NAME":"Naryn","FIPS_CNTRY":"KG","CNTRY_NAME":"Kyrgyzstan","STATUS":"Provincial capital","POP_RANK":7,"POP_CLASS":"Less than 50,000","PORT_ID":0,"LABEL_FLAG":1}},{"type":"Feature","id":44,"geometry":{"type":"Point","coordinates":[71.679996594447488,40.998996089212326]},"properties":{"FID":44,"CITY_NAME":"Namangan","GMI_ADMIN":"UZB-NMG","ADMIN_NAME":"Namangan","FIPS_CNTRY":"UZ","CNTRY_NAME":"Uzbekistan","STATUS":"Provincial capital","POP_RANK":4,"POP_CLASS":"250,000 to 500,000","PORT_ID":0,"LABEL_FLAG":1}},{"type":"Feature","id":45,"geometry":{"type":"Point","coordinates":[72.344997595066815,40.794003089021402]},"properties":{"FID":45,"CITY_NAME":"Andizhan","GMI_ADMIN":"UZB-AND","ADMIN_NAME":"Andizhan","FIPS_CNTRY":"UZ","CNTRY_NAME":"Uzbekistan","STATUS":"Provincial capital","POP_RANK":4,"POP_CLASS":"250,000 to 500,000","PORT_ID":0,"LABEL_FLAG":1}},{"type":"Feature","id":46,"geometry":{"type":"Point","coordinates":[72.79900259548964,40.524003088769945]},"properties":{"FID":46,"CITY_NAME":"Osh","GMI_ADMIN":"KGZ-OSH","ADMIN_NAME":"Osh","FIPS_CNTRY":"KG","CNTRY_NAME":"Kyrgyzstan","STATUS":"Provincial capital","POP_RANK":5,"POP_CLASS":"100,000 to 250,000","PORT_ID":0,"LABEL_FLAG":1}},{"type":"Feature","id":47,"geometry":{"type":"Point","coordinates":[71.785998594546214,40.385997088641417]},"properties":{"FID":47,"CITY_NAME":"Fergana","GMI_ADMIN":"UZB-FRG","ADMIN_NAME":"Fergana","FIPS_CNTRY":"UZ","CNTRY_NAME":"Uzbekistan","STATUS":"Provincial capital","POP_RANK":5,"POP_CLASS":"100,000 to 250,000","PORT_ID":0,"LABEL_FLAG":1}},{"type":"Feature","id":48,"geometry":{"type":"Point","coordinates":[75.999996598470801,39.480003087797655]},"properties":{"FID":48,"CITY_NAME":"Kashi","GMI_ADMIN":"CHN-XNJ","ADMIN_NAME":"Xinjiang","FIPS_CNTRY":"CH","CNTRY_NAME":"China","STATUS":"Other","POP_RANK":5,"POP_CLASS":"100,000 to 250,000","PORT_ID":0,"LABEL_FLAG":0}},{"type":"Feature","id":49,"geometry":{"type":"Point","coordinates":[70.466697593317519,34.43329808309754]},"properties":{"FID":49,"CITY_NAME":"Jalabad","GMI_ADMIN":"AFG-NNG","ADMIN_NAME":"Nangarhar","FIPS_CNTRY":"AF","CNTRY_NAME":"Afghanistan","STATUS":"Provincial capital","POP_RANK":6,"POP_CLASS":"50,000 to 100,000","PORT_ID":0,"LABEL_FLAG":0}},{"type":"Feature","id":50,"geometry":{"type":"Point","coordinates":[68.900004591858419,38.629998087006015]},"properties":{"FID":50,"CITY_NAME":"Dushanbe","GMI_ADMIN":"TJK-DSH","ADMIN_NAME":"Dushanbe","FIPS_CNTRY":"TI","CNTRY_NAME":"Tajikistan","STATUS":"National and provincial capital","POP_RANK":3,"POP_CLASS":"500,000 to 1,000,000","PORT_ID":0,"LABEL_FLAG":1}},{"type":"Feature","id":51,"geometry":{"type":"Point","coordinates":[69.780996592678918,37.911996086337325]},"properties":{"FID":51,"CITY_NAME":"Kulob","GMI_ADMIN":"TJK-KLB","ADMIN_NAME":"Kulyab","FIPS_CNTRY":"TI","CNTRY_NAME":"Tajikistan","STATUS":"Provincial capital","POP_RANK":6,"POP_CLASS":"50,000 to 100,000","PORT_ID":0,"LABEL_FLAG":0}},{"type":"Feature","id":52,"geometry":{"type":"Point","coordinates":[68.799996591765279,37.833336086264069]},"properties":{"FID":52,"CITY_NAME":"Qurghonteppa","GMI_ADMIN":"TJK-KTB","ADMIN_NAME":"Kurgan Tyube","FIPS_CNTRY":"TI","CNTRY_NAME":"Tajikistan","STATUS":"Provincial capital","POP_RANK":6,"POP_CLASS":"50,000 to 100,000","PORT_ID":0,"LABEL_FLAG":0}},{"type":"Feature","id":53,"geometry":{"type":"Point","coordinates":[70.578999593422111,37.12100408560066]},"properties":{"FID":53,"CITY_NAME":"Feyzabad","GMI_ADMIN":"AFG-BDK","ADMIN_NAME":"Badakhshan","FIPS_CNTRY":"AF","CNTRY_NAME":"Afghanistan","STATUS":"Provincial capital","POP_RANK":7,"POP_CLASS":"Less than 50,000","PORT_ID":0,"LABEL_FLAG":0}},{"type":"Feature","id":54,"geometry":{"type":"Point","coordinates":[69.540003592454468,36.729999085236514]},"properties":{"FID":54,"CITY_NAME":"Taloqan","GMI_ADMIN":"AFG-TKH","ADMIN_NAME":"Takhar","FIPS_CNTRY":"AF","CNTRY_NAME":"Afghanistan","STATUS":"Provincial capital","POP_RANK":7,"POP_CLASS":"Less than 50,000","PORT_ID":0,"LABEL_FLAG":0}},{"type":"Feature","id":55,"geometry":{"type":"Point","coordinates":[68.859999591821179,36.727002085233721]},"properties":{"FID":55,"CITY_NAME":"Konduz","GMI_ADMIN":"AFG-KNZ","ADMIN_NAME":"Konduz","FIPS_CNTRY":"AF","CNTRY_NAME":"Afghanistan","STATUS":"Provincial capital","POP_RANK":6,"POP_CLASS":"50,000 to 100,000","PORT_ID":0,"LABEL_FLAG":1}},{"type":"Feature","id":56,"geometry":{"type":"Point","coordinates":[71.150004593953895,34.866000083500523]},"properties":{"FID":56,"CITY_NAME":"Asadabad","GMI_ADMIN":"AFG-KNR","ADMIN_NAME":"Konarha","FIPS_CNTRY":"AF","CNTRY_NAME":"Afghanistan","STATUS":"Provincial capital","POP_RANK":7,"POP_CLASS":"Less than 50,000","PORT_ID":0,"LABEL_FLAG":0}},{"type":"Feature","id":57,"geometry":{"type":"Point","coordinates":[71.544996594321759,34.00399808269772]},"properties":{"FID":57,"CITY_NAME":"Peshawar","GMI_ADMIN":"PAK-NWF","ADMIN_NAME":"North-west Frontier","FIPS_CNTRY":"PK","CNTRY_NAME":"Pakistan","STATUS":"Provincial capital","POP_RANK":3,"POP_CLASS":"500,000 to 1,000,000","PORT_ID":0,"LABEL_FLAG":0}},{"type":"Feature","id":58,"geometry":{"type":"Point","coordinates":[68.040000591057492,36.261000084799718]},"properties":{"FID":58,"CITY_NAME":"Aybak","GMI_ADMIN":"AFG-SMN","ADMIN_NAME":"Samangan","FIPS_CNTRY":"AF","CNTRY_NAME":"Afghanistan","STATUS":"Provincial capital","POP_RANK":7,"POP_CLASS":"Less than 50,000","PORT_ID":0,"LABEL_FLAG":0}},{"type":"Feature","id":59,"geometry":{"type":"Point","coordinates":[68.703003591674957,36.132003084679582]},"properties":{"FID":59,"CITY_NAME":"Baghlan","GMI_ADMIN":"AFG-BGH","ADMIN_NAME":"Baghlan","FIPS_CNTRY":"AF","CNTRY_NAME":"Afghanistan","STATUS":"Provincial capital","POP_RANK":7,"POP_CLASS":"Less than 50,000","PORT_ID":0,"LABEL_FLAG":1}},{"type":"Feature","id":60,"geometry":{"type":"Point","coordinates":[69.333300592261963,35.016696083640866]},"properties":{"FID":60,"CITY_NAME":"Mahmud-E Eraqi","GMI_ADMIN":"AFG-KAP","ADMIN_NAME":"Kapisa","FIPS_CNTRY":"AF","CNTRY_NAME":"Afghanistan","STATUS":"Provincial capital","POP_RANK":7,"POP_CLASS":"Less than 50,000","PORT_ID":0,"LABEL_FLAG":0}},{"type":"Feature","id":61,"geometry":{"type":"Point","coordinates":[69.170004592109876,35.013996083638361]},"properties":{"FID":61,"CITY_NAME":"Charikar","GMI_ADMIN":"AFG-PRV","ADMIN_NAME":"Parvan","FIPS_CNTRY":"AF","CNTRY_NAME":"Afghanistan","STATUS":"Provincial capital","POP_RANK":7,"POP_CLASS":"Less than 50,000","PORT_ID":0,"LABEL_FLAG":0}},{"type":"Feature","id":62,"geometry":{"type":"Point","coordinates":[67.81100459084422,34.820001083457683]},"properties":{"FID":62,"CITY_NAME":"Bamian","GMI_ADMIN":"AFG-BAM","ADMIN_NAME":"Bamian","FIPS_CNTRY":"AF","CNTRY_NAME":"Afghanistan","STATUS":"Provincial capital","POP_RANK":7,"POP_CLASS":"Less than 50,000","PORT_ID":0,"LABEL_FLAG":1}},{"type":"Feature","id":63,"geometry":{"type":"Point","coordinates":[70.166700593038115,34.650000083299361]},"properties":{"FID":63,"CITY_NAME":"Mehtar Lam","GMI_ADMIN":"AFG-LGH","ADMIN_NAME":"Laghman","FIPS_CNTRY":"AF","CNTRY_NAME":"Afghanistan","STATUS":"Provincial capital","POP_RANK":7,"POP_CLASS":"Less than 50,000","PORT_ID":0,"LABEL_FLAG":0}},{"type":"Feature","id":64,"geometry":{"type":"Point","coordinates":[69.136758592078905,34.530912083188454]},"properties":{"FID":64,"CITY_NAME":"Kabul","GMI_ADMIN":"AFG-KAB","ADMIN_NAME":"Kabol","FIPS_CNTRY":"AF","CNTRY_NAME":"Afghanistan","STATUS":"National and provincial capital","POP_RANK":2,"POP_CLASS":"1,000,000 to 5,000,000","PORT_ID":0,"LABEL_FLAG":0}},{"type":"Feature","id":65,"geometry":{"type":"Point","coordinates":[68.799996591765279,34.450002083113091]},"properties":{"FID":65,"CITY_NAME":"Mayda Shahr","GMI_ADMIN":"AFG-VRD","ADMIN_NAME":"Vardak","FIPS_CNTRY":"AF","CNTRY_NAME":"Afghanistan","STATUS":"Provincial capital","POP_RANK":7,"POP_CLASS":"Less than 50,000","PORT_ID":0,"LABEL_FLAG":0}},{"type":"Feature","id":66,"geometry":{"type":"Point","coordinates":[68.966703591920549,33.966702082662991]},"properties":{"FID":66,"CITY_NAME":"Baraki Barak","GMI_ADMIN":"AFG-LWG","ADMIN_NAME":"Lowgar","FIPS_CNTRY":"AF","CNTRY_NAME":"Afghanistan","STATUS":"Provincial capital","POP_RANK":7,"POP_CLASS":"Less than 50,000","PORT_ID":0,"LABEL_FLAG":0}},{"type":"Feature","id":67,"geometry":{"type":"Point","coordinates":[69.000003591951554,39.750003088049112]},"properties":{"FID":67,"CITY_NAME":"Leninobod","GMI_ADMIN":"TJK-KDZ","ADMIN_NAME":"Khudzhand","FIPS_CNTRY":"TI","CNTRY_NAME":"Tajikistan","STATUS":"Provincial capital","POP_RANK":7,"POP_CLASS":"Less than 50,000","PORT_ID":0,"LABEL_FLAG":0}},{"type":"Feature","id":68,"geometry":{"type":"Point","coordinates":[72.236997594966255,42.51500109062421]},"properties":{"FID":68,"CITY_NAME":"Talas","GMI_ADMIN":"KGZ-TLS","ADMIN_NAME":"Talas","FIPS_CNTRY":"KG","CNTRY_NAME":"Kyrgyzstan","STATUS":"Provincial capital","POP_RANK":7,"POP_CLASS":"Less than 50,000","PORT_ID":0,"LABEL_FLAG":1}},{"type":"Feature","id":69,"geometry":{"type":"Point","coordinates":[69.572997592485194,42.302997090426771]},"properties":{"FID":69,"CITY_NAME":"Shymkent","GMI_ADMIN":"KAZ-CHM","ADMIN_NAME":"Chimkent","FIPS_CNTRY":"KZ","CNTRY_NAME":"Kazakhstan","STATUS":"Provincial capital","POP_RANK":4,"POP_CLASS":"250,000 to 500,000","PORT_ID":0,"LABEL_FLAG":0}},{"type":"Feature","id":70,"geometry":{"type":"Point","coordinates":[69.3498695922774,41.247936089444167]},"properties":{"FID":70,"CITY_NAME":"Tashkent","GMI_ADMIN":"UZB-TSK","ADMIN_NAME":"Tashkent","FIPS_CNTRY":"UZ","CNTRY_NAME":"Uzbekistan","STATUS":"National and provincial capital","POP_RANK":2,"POP_CLASS":"1,000,000 to 5,000,000","PORT_ID":0,"LABEL_FLAG":1}},{"type":"Feature","id":71,"geometry":{"type":"Point","coordinates":[68.783301591749733,40.516704088763149]},"properties":{"FID":71,"CITY_NAME":"Gulistan","GMI_ADMIN":"UZB-SRD","ADMIN_NAME":"Syrdar'ya","FIPS_CNTRY":"UZ","CNTRY_NAME":"Uzbekistan","STATUS":"Provincial capital","POP_RANK":6,"POP_CLASS":"50,000 to 100,000","PORT_ID":0,"LABEL_FLAG":0}},{"type":"Feature","id":72,"geometry":{"type":"Point","coordinates":[67.842000590873084,40.098996088374136]},"properties":{"FID":72,"CITY_NAME":"Dzhizak","GMI_ADMIN":"UZB-DZH","ADMIN_NAME":"Dzhizak","FIPS_CNTRY":"UZ","CNTRY_NAME":"Uzbekistan","STATUS":"Provincial capital","POP_RANK":5,"POP_CLASS":"100,000 to 250,000","PORT_ID":0,"LABEL_FLAG":1}},{"type":"Feature","id":73,"geometry":{"type":"Point","coordinates":[71.370999594159713,42.888996090972526]},"properties":{"FID":73,"CITY_NAME":"Dzhambul","GMI_ADMIN":"KAZ-DZM","ADMIN_NAME":"Dzhambul","FIPS_CNTRY":"KZ","CNTRY_NAME":"Kazakhstan","STATUS":"Provincial capital","POP_RANK":4,"POP_CLASS":"250,000 to 500,000","PORT_ID":0,"LABEL_FLAG":1}},{"type":"Feature","id":74,"geometry":{"type":"Point","coordinates":[87.587001609262046,43.78300209180513]},"properties":{"FID":74,"CITY_NAME":"Urumqi","GMI_ADMIN":"CHN-XNJ","ADMIN_NAME":"Xinjiang","FIPS_CNTRY":"CH","CNTRY_NAME":"China","STATUS":"Provincial capital","POP_RANK":2,"POP_CLASS":"1,000,000 to 5,000,000","PORT_ID":0,"LABEL_FLAG":0}},{"type":"Feature","id":75,"geometry":{"type":"Point","coordinates":[81.620001603704821,28.063998077165664]},"properties":{"FID":75,"CITY_NAME":"Nepalganj","GMI_ADMIN":"NPL-BHE","ADMIN_NAME":"Bheri","FIPS_CNTRY":"NP","CNTRY_NAME":"Nepal","STATUS":"Provincial capital","POP_RANK":7,"POP_CLASS":"Less than 50,000","PORT_ID":0,"LABEL_FLAG":0}},{"type":"Feature","id":76,"geometry":{"type":"Point","coordinates":[83.383299605347048,27.533304076671413]},"properties":{"FID":76,"CITY_NAME":"Bhairawa","GMI_ADMIN":"NPL-LMB","ADMIN_NAME":"Lumbini","FIPS_CNTRY":"NP","CNTRY_NAME":"Nepal","STATUS":"Provincial capital","POP_RANK":7,"POP_CLASS":"Less than 50,000","PORT_ID":0,"LABEL_FLAG":0}},{"type":"Feature","id":77,"geometry":{"type":"Point","coordinates":[80.919999603052901,26.848998076034107]},"properties":{"FID":77,"CITY_NAME":"Lucknow","GMI_ADMIN":"IND-UPR","ADMIN_NAME":"Uttar Pradesh","FIPS_CNTRY":"IN","CNTRY_NAME":"India","STATUS":"Provincial capital","POP_RANK":2,"POP_CLASS":"1,000,000 to 5,000,000","PORT_ID":0,"LABEL_FLAG":0}},{"type":"Feature","id":78,"geometry":{"type":"Point","coordinates":[80.31786360249211,26.457831075669802]},"properties":{"FID":78,"CITY_NAME":"Kanpur","GMI_ADMIN":"IND-UPR","ADMIN_NAME":"Uttar Pradesh","FIPS_CNTRY":"IN","CNTRY_NAME":"India","STATUS":"Other","POP_RANK":2,"POP_CLASS":"1,000,000 to 5,000,000","PORT_ID":0,"LABEL_FLAG":0}},{"type":"Feature","id":79,"geometry":{"type":"Point","coordinates":[82.95633960494942,25.282008074574733]},"properties":{"FID":79,"CITY_NAME":"Varanasi","GMI_ADMIN":"IND-UPR","ADMIN_NAME":"Uttar Pradesh","FIPS_CNTRY":"IN","CNTRY_NAME":"India","STATUS":"Other","POP_RANK":3,"POP_CLASS":"500,000 to 1,000,000","PORT_ID":0,"LABEL_FLAG":0}},{"type":"Feature","id":80,"geometry":{"type":"Point","coordinates":[82.216701604260578,29.250000078270219]},"properties":{"FID":80,"CITY_NAME":"Jumla","GMI_ADMIN":"NPL-KRN","ADMIN_NAME":"Karnali","FIPS_CNTRY":"NP","CNTRY_NAME":"Nepal","STATUS":"Provincial capital","POP_RANK":7,"POP_CLASS":"Less than 50,000","PORT_ID":0,"LABEL_FLAG":0}},{"type":"Feature","id":81,"geometry":{"type":"Point","coordinates":[80.600004602754922,29.300004078316789]},"properties":{"FID":81,"CITY_NAME":"Dandeldhura","GMI_ADMIN":"NPL-MHK","ADMIN_NAME":"Mahakali","FIPS_CNTRY":"NP","CNTRY_NAME":"Nepal","STATUS":"Provincial capital","POP_RANK":7,"POP_CLASS":"Less than 50,000","PORT_ID":0,"LABEL_FLAG":0}},{"type":"Feature","id":82,"geometry":{"type":"Point","coordinates":[80.593002602748385,28.694997077753328]},"properties":{"FID":82,"CITY_NAME":"Dhangarhi","GMI_ADMIN":"NPL-SET","ADMIN_NAME":"Seti","FIPS_CNTRY":"NP","CNTRY_NAME":"Nepal","STATUS":"Provincial capital","POP_RANK":7,"POP_CLASS":"Less than 50,000","PORT_ID":0,"LABEL_FLAG":0}},{"type":"Feature","id":83,"geometry":{"type":"Point","coordinates":[82.183302604229453,28.350000077432028]},"properties":{"FID":83,"CITY_NAME":"Sallyan","GMI_ADMIN":"NPL-RAP","ADMIN_NAME":"Rapti","FIPS_CNTRY":"NP","CNTRY_NAME":"Nepal","STATUS":"Provincial capital","POP_RANK":7,"POP_CLASS":"Less than 50,000","PORT_ID":0,"LABEL_FLAG":0}},{"type":"Feature","id":84,"geometry":{"type":"Point","coordinates":[83.583297605533318,28.266696077354439]},"properties":{"FID":84,"CITY_NAME":"Baglung","GMI_ADMIN":"NPL-DHW","ADMIN_NAME":"Dhawalagiri","FIPS_CNTRY":"NP","CNTRY_NAME":"Nepal","STATUS":"Provincial capital","POP_RANK":7,"POP_CLASS":"Less than 50,000","PORT_ID":0,"LABEL_FLAG":0}},{"type":"Feature","id":85,"geometry":{"type":"Point","coordinates":[83.971998605895322,28.263996077351933]},"properties":{"FID":85,"CITY_NAME":"Pokhara","GMI_ADMIN":"NPL-GND","ADMIN_NAME":"Gandaki","FIPS_CNTRY":"NP","CNTRY_NAME":"Nepal","STATUS":"Provincial capital","POP_RANK":7,"POP_CLASS":"Less than 50,000","PORT_ID":0,"LABEL_FLAG":0}},{"type":"Feature","id":86,"geometry":{"type":"Point","coordinates":[85.312953607144181,27.712017076837853]},"properties":{"FID":86,"CITY_NAME":"Kathmandu","GMI_ADMIN":"NPL-BGM","ADMIN_NAME":"Bagmati","FIPS_CNTRY":"NP","CNTRY_NAME":"Nepal","STATUS":"National and provincial capital","POP_RANK":4,"POP_CLASS":"250,000 to 500,000","PORT_ID":0,"LABEL_FLAG":0}},{"type":"Feature","id":87,"geometry":{"type":"Point","coordinates":[85.130001606973764,27.55099807668789]},"properties":{"FID":87,"CITY_NAME":"Bhimphedi","GMI_ADMIN":"NPL-NRY","ADMIN_NAME":"Narayani","FIPS_CNTRY":"NP","CNTRY_NAME":"Nepal","STATUS":"Provincial capital","POP_RANK":7,"POP_CLASS":"Less than 50,000","PORT_ID":0,"LABEL_FLAG":0}},{"type":"Feature","id":88,"geometry":{"type":"Point","coordinates":[86.08699860786507,27.325998076478342]},"properties":{"FID":88,"CITY_NAME":"Ramechhap","GMI_ADMIN":"NPL-JNK","ADMIN_NAME":"Janakpur","FIPS_CNTRY":"NP","CNTRY_NAME":"Nepal","STATUS":"Provincial capital","POP_RANK":7,"POP_CLASS":"Less than 50,000","PORT_ID":0,"LABEL_FLAG":0}},{"type":"Feature","id":89,"geometry":{"type":"Point","coordinates":[86.733297608466984,26.533296075740083]},"properties":{"FID":89,"CITY_NAME":"Rajbiraj","GMI_ADMIN":"NPL-SGR","ADMIN_NAME":"Sagarmatha","FIPS_CNTRY":"NP","CNTRY_NAME":"Nepal","STATUS":"Provincial capital","POP_RANK":7,"POP_CLASS":"Less than 50,000","PORT_ID":0,"LABEL_FLAG":0}},{"type":"Feature","id":90,"geometry":{"type":"Point","coordinates":[85.134996606978433,25.614000074883933]},"properties":{"FID":90,"CITY_NAME":"Patna","GMI_ADMIN":"IND-BIH","ADMIN_NAME":"Bihar","FIPS_CNTRY":"IN","CNTRY_NAME":"India","STATUS":"Provincial capital","POP_RANK":3,"POP_CLASS":"500,000 to 1,000,000","PORT_ID":0,"LABEL_FLAG":0}},{"type":"Feature","id":91,"geometry":{"type":"Point","coordinates":[88.639002610241818,24.357996073714176]},"properties":{"FID":91,"CITY_NAME":"Rajshahi","GMI_ADMIN":"BGD-RJS","ADMIN_NAME":"Rajshahi","FIPS_CNTRY":"BG","CNTRY_NAME":"Bangladesh","STATUS":"Provincial capital","POP_RANK":4,"POP_CLASS":"250,000 to 500,000","PORT_ID":0,"LABEL_FLAG":1}},{"type":"Feature","id":92,"geometry":{"type":"Point","coordinates":[89.558001611097694,22.842999072303229]},"properties":{"FID":92,"CITY_NAME":"Khulna","GMI_ADMIN":"BGD-KHL","ADMIN_NAME":"Khulna","FIPS_CNTRY":"BG","CNTRY_NAME":"Bangladesh","STATUS":"Provincial capital","POP_RANK":3,"POP_CLASS":"500,000 to 1,000,000","PORT_ID":0,"LABEL_FLAG":1}},{"type":"Feature","id":93,"geometry":{"type":"Point","coordinates":[88.334001609957767,22.54400107202477]},"properties":{"FID":93,"CITY_NAME":"Calcutta","GMI_ADMIN":"IND-WBN","ADMIN_NAME":"West Bengal","FIPS_CNTRY":"IN","CNTRY_NAME":"India","STATUS":"Provincial capital","POP_RANK":2,"POP_CLASS":"1,000,000 to 5,000,000","PORT_ID":49560,"LABEL_FLAG":0}},{"type":"Feature","id":94,"geometry":{"type":"Point","coordinates":[89.833302611354071,27.633303076764548]},"properties":{"FID":94,"CITY_NAME":"Punakha","GMI_ADMIN":"BTN-PNK","ADMIN_NAME":"Punakha","FIPS_CNTRY":"BT","CNTRY_NAME":"Bhutan","STATUS":"Provincial capital","POP_RANK":7,"POP_CLASS":"Less than 50,000","PORT_ID":0,"LABEL_FLAG":1}},{"type":"Feature","id":95,"geometry":{"type":"Point","coordinates":[89.6670006111992,27.442998076587315]},"properties":{"FID":95,"CITY_NAME":"Thimphu","GMI_ADMIN":"BTN-THM","ADMIN_NAME":"Thimphu","FIPS_CNTRY":"BT","CNTRY_NAME":"Bhutan","STATUS":"National and provincial capital","POP_RANK":7,"POP_CLASS":"Less than 50,000","PORT_ID":0,"LABEL_FLAG":1}},{"type":"Feature","id":96,"geometry":{"type":"Point","coordinates":[89.916696611431718,27.433296076578273]},"properties":{"FID":96,"CITY_NAME":"Wangdue Prodrang","GMI_ADMIN":"BTN-WNP","ADMIN_NAME":"Wangdi Phodrang","FIPS_CNTRY":"BT","CNTRY_NAME":"Bhutan","STATUS":"Provincial capital","POP_RANK":7,"POP_CLASS":"Less than 50,000","PORT_ID":0,"LABEL_FLAG":0}},{"type":"Feature","id":97,"geometry":{"type":"Point","coordinates":[89.516700611059235,27.383301076531723]},"properties":{"FID":97,"CITY_NAME":"Paro","GMI_ADMIN":"BTN-PAR","ADMIN_NAME":"Paro","FIPS_CNTRY":"BT","CNTRY_NAME":"Bhutan","STATUS":"Provincial capital","POP_RANK":7,"POP_CLASS":"Less than 50,000","PORT_ID":0,"LABEL_FLAG":1}},{"type":"Feature","id":98,"geometry":{"type":"Point","coordinates":[88.616997610221318,27.329004076481155]},"properties":{"FID":98,"CITY_NAME":"Gangtok","GMI_ADMIN":"IND-SKK","ADMIN_NAME":"Sikkim","FIPS_CNTRY":"IN","CNTRY_NAME":"India","STATUS":"Provincial capital","POP_RANK":7,"POP_CLASS":"Less than 50,000","PORT_ID":0,"LABEL_FLAG":0}},{"type":"Feature","id":99,"geometry":{"type":"Point","coordinates":[87.926004609577745,26.908002076089062]},"properties":{"FID":99,"CITY_NAME":"Ilam","GMI_ADMIN":"NPL-MEC","ADMIN_NAME":"Mechi","FIPS_CNTRY":"NP","CNTRY_NAME":"Nepal","STATUS":"Provincial capital","POP_RANK":7,"POP_CLASS":"Less than 50,000","PORT_ID":0,"LABEL_FLAG":0}},{"type":"Feature","id":100,"geometry":{"type":"Point","coordinates":[87.283296608979214,26.450001075662513]},"properties":{"FID":100,"CITY_NAME":"Biratnagar","GMI_ADMIN":"NPL-KOS","ADMIN_NAME":"Kosi","FIPS_CNTRY":"NP","CNTRY_NAME":"Nepal","STATUS":"Provincial capital","POP_RANK":6,"POP_CLASS":"50,000 to 100,000","PORT_ID":0,"LABEL_FLAG":0}},{"type":"Feature","id":101,"geometry":{"type":"Point","coordinates":[79.089111601347781,21.155751070731853]},"properties":{"FID":101,"CITY_NAME":"Nagpur","GMI_ADMIN":"IND-MHR","ADMIN_NAME":"Maharashtra","FIPS_CNTRY":"IN","CNTRY_NAME":"India","STATUS":"Other","POP_RANK":2,"POP_CLASS":"1,000,000 to 5,000,000","PORT_ID":0,"LABEL_FLAG":0}},{"type":"Feature","id":102,"geometry":{"type":"Point","coordinates":[85.834998607630354,20.264004069901347]},"properties":{"FID":102,"CITY_NAME":"Bhubaneshwar","GMI_ADMIN":"IND-ORS","ADMIN_NAME":"Orissa","FIPS_CNTRY":"IN","CNTRY_NAME":"India","STATUS":"Provincial capital","POP_RANK":4,"POP_CLASS":"250,000 to 500,000","PORT_ID":0,"LABEL_FLAG":0}},{"type":"Feature","id":103,"geometry":{"type":"Point","coordinates":[83.330001605297383,17.74999806756]},"properties":{"FID":103,"CITY_NAME":"Vishakhapatnam","GMI_ADMIN":"IND-APR","ADMIN_NAME":"Andhra Pradesh","FIPS_CNTRY":"IN","CNTRY_NAME":"India","STATUS":"Other","POP_RANK":3,"POP_CLASS":"500,000 to 1,000,000","PORT_ID":49480,"LABEL_FLAG":0}},{"type":"Feature","id":104,"geometry":{"type":"Point","coordinates":[80.247996602427094,13.061997063193957]},"properties":{"FID":104,"CITY_NAME":"Madras","GMI_ADMIN":"IND-TNA","ADMIN_NAME":"Tamil Nadu","FIPS_CNTRY":"IN","CNTRY_NAME":"India","STATUS":"Provincial capital","POP_RANK":2,"POP_CLASS":"1,000,000 to 5,000,000","PORT_ID":49450,"LABEL_FLAG":0}},{"type":"Feature","id":105,"geometry":{"type":"Point","coordinates":[79.837002602044294,11.933001062142509]},"properties":{"FID":105,"CITY_NAME":"Pondicherry","GMI_ADMIN":"IND-PND","ADMIN_NAME":"Pondicherry","FIPS_CNTRY":"IN","CNTRY_NAME":"India","STATUS":"Provincial capital","POP_RANK":5,"POP_CLASS":"100,000 to 250,000","PORT_ID":49430,"LABEL_FLAG":1}},{"type":"Feature","id":106,"geometry":{"type":"Point","coordinates":[72.633150595335195,10.550952060855366]},"properties":{"FID":106,"CITY_NAME":"Kavaratti","GMI_ADMIN":"IND-LKS","ADMIN_NAME":"Lakshadweep","FIPS_CNTRY":"IN","CNTRY_NAME":"India","STATUS":"Provincial capital","POP_RANK":7,"POP_CLASS":"Less than 50,000","PORT_ID":0,"LABEL_FLAG":0}},{"type":"Feature","id":107,"geometry":{"type":"Point","coordinates":[78.121728600446829,9.9139860602621468]},"properties":{"FID":107,"CITY_NAME":"Madurai","GMI_ADMIN":"IND-TNA","ADMIN_NAME":"Tamil Nadu","FIPS_CNTRY":"IN","CNTRY_NAME":"India","STATUS":"Other","POP_RANK":3,"POP_CLASS":"500,000 to 1,000,000","PORT_ID":0,"LABEL_FLAG":0}},{"type":"Feature","id":108,"geometry":{"type":"Point","coordinates":[76.951998599357438,8.5040010589489938]},"properties":{"FID":108,"CITY_NAME":"Trivandrum","GMI_ADMIN":"IND-KER","ADMIN_NAME":"Kerala","FIPS_CNTRY":"IN","CNTRY_NAME":"India","STATUS":"Provincial capital","POP_RANK":3,"POP_CLASS":"500,000 to 1,000,000","PORT_ID":49170,"LABEL_FLAG":0}},{"type":"Feature","id":109,"geometry":{"type":"Point","coordinates":[76.280418598731984,9.970155060314454]},"properties":{"FID":109,"CITY_NAME":"Cochin","GMI_ADMIN":"IND-KER","ADMIN_NAME":"Kerala","FIPS_CNTRY":"IN","CNTRY_NAME":"India","STATUS":"Other","POP_RANK":3,"POP_CLASS":"500,000 to 1,000,000","PORT_ID":49130,"LABEL_FLAG":0}},{"type":"Feature","id":110,"geometry":{"type":"Point","coordinates":[72.849996595537135,20.416365070043256]},"properties":{"FID":110,"CITY_NAME":"Daman","GMI_ADMIN":"IND-DAD","ADMIN_NAME":"Daman & Diu","FIPS_CNTRY":"IN","CNTRY_NAME":"India","STATUS":"Provincial capital","POP_RANK":7,"POP_CLASS":"Less than 50,000","PORT_ID":0,"LABEL_FLAG":0}},{"type":"Feature","id":111,"geometry":{"type":"Point","coordinates":[73.0017905956785,20.191545069833865]},"properties":{"FID":111,"CITY_NAME":"Silvassa","GMI_ADMIN":"IND-DAN","ADMIN_NAME":"Dadra and Nagar Haveli","FIPS_CNTRY":"IN","CNTRY_NAME":"India","STATUS":"Provincial capital","POP_RANK":7,"POP_CLASS":"Less than 50,000","PORT_ID":0,"LABEL_FLAG":0}},{"type":"Feature","id":112,"geometry":{"type":"Point","coordinates":[72.826002595514808,19.077003068795875]},"properties":{"FID":112,"CITY_NAME":"Bombay","GMI_ADMIN":"IND-MHR","ADMIN_NAME":"Maharashtra","FIPS_CNTRY":"IN","CNTRY_NAME":"India","STATUS":"Provincial capital","POP_RANK":1,"POP_CLASS":"5,000,000 and greater","PORT_ID":48840,"LABEL_FLAG":0}},{"type":"Feature","id":113,"geometry":{"type":"Point","coordinates":[73.852272596470584,18.535743068291779]},"properties":{"FID":113,"CITY_NAME":"Pune","GMI_ADMIN":"IND-MHR","ADMIN_NAME":"Maharashtra","FIPS_CNTRY":"IN","CNTRY_NAME":"India","STATUS":"Other","POP_RANK":2,"POP_CLASS":"1,000,000 to 5,000,000","PORT_ID":0,"LABEL_FLAG":0}},{"type":"Feature","id":114,"geometry":{"type":"Point","coordinates":[78.485004600785146,17.395002067229385]},"properties":{"FID":114,"CITY_NAME":"Hyderabad","GMI_ADMIN":"IND-APR","ADMIN_NAME":"Andhra Pradesh","FIPS_CNTRY":"IN","CNTRY_NAME":"India","STATUS":"Provincial capital","POP_RANK":2,"POP_CLASS":"1,000,000 to 5,000,000","PORT_ID":0,"LABEL_FLAG":0}},{"type":"Feature","id":115,"geometry":{"type":"Point","coordinates":[73.818000596438651,15.49199706545707]},"properties":{"FID":115,"CITY_NAME":"Panaji","GMI_ADMIN":"IND-GOA","ADMIN_NAME":"Goa","FIPS_CNTRY":"IN","CNTRY_NAME":"India","STATUS":"Provincial capital","POP_RANK":7,"POP_CLASS":"Less than 50,000","PORT_ID":0,"LABEL_FLAG":0}},{"type":"Feature","id":116,"geometry":{"type":"Point","coordinates":[77.587731599949507,12.974751063112706]},"properties":{"FID":116,"CITY_NAME":"Bangalore","GMI_ADMIN":"IND-KRN","ADMIN_NAME":"Karnataka","FIPS_CNTRY":"IN","CNTRY_NAME":"India","STATUS":"Other","POP_RANK":2,"POP_CLASS":"1,000,000 to 5,000,000","PORT_ID":0,"LABEL_FLAG":0}},{"type":"Feature","id":117,"geometry":{"type":"Point","coordinates":[74.843001597393283,12.869001063014224]},"properties":{"FID":117,"CITY_NAME":"Mangalore","GMI_ADMIN":"IND-KRN","ADMIN_NAME":"Karnataka","FIPS_CNTRY":"IN","CNTRY_NAME":"India","STATUS":"Other","POP_RANK":4,"POP_CLASS":"250,000 to 500,000","PORT_ID":49030,"LABEL_FLAG":0}},{"type":"Feature","id":118,"geometry":{"type":"Point","coordinates":[81.233001603344434,8.5689990590095277]},"properties":{"FID":118,"CITY_NAME":"Trincomalee","GMI_ADMIN":"LKA-EST","ADMIN_NAME":"Eastern","FIPS_CNTRY":"CE","CNTRY_NAME":"Sri Lanka","STATUS":"Provincial capital","POP_RANK":7,"POP_CLASS":"Less than 50,000","PORT_ID":49290,"LABEL_FLAG":0}},{"type":"Feature","id":119,"geometry":{"type":"Point","coordinates":[80.383329602553118,8.3500020588055719]},"properties":{"FID":119,"CITY_NAME":"Anuradhapura","GMI_ADMIN":"LKA-NCN","ADMIN_NAME":"North Central","FIPS_CNTRY":"CE","CNTRY_NAME":"Sri Lanka","STATUS":"Provincial capital","POP_RANK":7,"POP_CLASS":"Less than 50,000","PORT_ID":0,"LABEL_FLAG":0}},{"type":"Feature","id":120,"geometry":{"type":"Point","coordinates":[79.826004602034061,8.0330040585103433]},"properties":{"FID":120,"CITY_NAME":"Puttalan","GMI_ADMIN":"LKA-NWS","ADMIN_NAME":"North Western","FIPS_CNTRY":"CE","CNTRY_NAME":"Sri Lanka","STATUS":"Provincial capital","POP_RANK":7,"POP_CLASS":"Less than 50,000","PORT_ID":0,"LABEL_FLAG":0}},{"type":"Feature","id":121,"geometry":{"type":"Point","coordinates":[80.637003602789349,7.2839970578127762]},"properties":{"FID":121,"CITY_NAME":"Kandy","GMI_ADMIN":"LKA-CEN","ADMIN_NAME":"Central","FIPS_CNTRY":"CE","CNTRY_NAME":"Sri Lanka","STATUS":"Provincial capital","POP_RANK":5,"POP_CLASS":"100,000 to 250,000","PORT_ID":0,"LABEL_FLAG":0}},{"type":"Feature","id":122,"geometry":{"type":"Point","coordinates":[81.055998603179575,6.984999057534317]},"properties":{"FID":122,"CITY_NAME":"Badulla","GMI_ADMIN":"LKA-UVA","ADMIN_NAME":"Uva","FIPS_CNTRY":"CE","CNTRY_NAME":"Sri Lanka","STATUS":"Provincial capital","POP_RANK":7,"POP_CLASS":"Less than 50,000","PORT_ID":0,"LABEL_FLAG":0}},{"type":"Feature","id":123,"geometry":{"type":"Point","coordinates":[79.848000602054555,6.9270030574803059]},"properties":{"FID":123,"CITY_NAME":"Colombo","GMI_ADMIN":"LKA-WST","ADMIN_NAME":"Western","FIPS_CNTRY":"CE","CNTRY_NAME":"Sri Lanka","STATUS":"National and provincial capital","POP_RANK":3,"POP_CLASS":"500,000 to 1,000,000","PORT_ID":49240,"LABEL_FLAG":0}},{"type":"Feature","id":124,"geometry":{"type":"Point","coordinates":[80.386002602555578,6.6930030572623735]},"properties":{"FID":124,"CITY_NAME":"Ratnapura","GMI_ADMIN":"LKA-SBR","ADMIN_NAME":"Sabaragamuwa","FIPS_CNTRY":"CE","CNTRY_NAME":"Sri Lanka","STATUS":"Provincial capital","POP_RANK":7,"POP_CLASS":"Less than 50,000","PORT_ID":0,"LABEL_FLAG":0}},{"type":"Feature","id":125,"geometry":{"type":"Point","coordinates":[80.217999602399146,6.0329970566476945]},"properties":{"FID":125,"CITY_NAME":"Galle","GMI_ADMIN":"LKA-STH","ADMIN_NAME":"Southern","FIPS_CNTRY":"CE","CNTRY_NAME":"Sri Lanka","STATUS":"Provincial capital","POP_RANK":5,"POP_CLASS":"100,000 to 250,000","PORT_ID":49250,"LABEL_FLAG":0}},{"type":"Feature","id":126,"geometry":{"type":"Point","coordinates":[104.71670162521534,17.383302067218494]},"properties":{"FID":126,"CITY_NAME":"Nakhom Phanom","GMI_ADMIN":"THA-NPH","ADMIN_NAME":"Nakhon Phanom","FIPS_CNTRY":"TH","CNTRY_NAME":"Thailand","STATUS":"Provincial capital","POP_RANK":7,"POP_CLASS":"Less than 50,000","PORT_ID":0,"LABEL_FLAG":0}},{"type":"Feature","id":127,"geometry":{"type":"Point","coordinates":[105.67199762610502,18.668997068415891]},"properties":{"FID":127,"CITY_NAME":"Vinh","GMI_ADMIN":"VNM-NAN","ADMIN_NAME":"Nghe An","FIPS_CNTRY":"VM","CNTRY_NAME":"Vietnam","STATUS":"Provincial capital","POP_RANK":5,"POP_CLASS":"100,000 to 250,000","PORT_ID":0,"LABEL_FLAG":0}},{"type":"Feature","id":128,"geometry":{"type":"Point","coordinates":[105.91669862633293,18.3500010681188]},"properties":{"FID":128,"CITY_NAME":"Ha Tinh","GMI_ADMIN":"VNM-HTN","ADMIN_NAME":"Ha Tinh","FIPS_CNTRY":"VM","CNTRY_NAME":"Vietnam","STATUS":"Provincial capital","POP_RANK":7,"POP_CLASS":"Less than 50,000","PORT_ID":57530,"LABEL_FLAG":1}},{"type":"Feature","id":129,"geometry":{"type":"Point","coordinates":[106.62399962699166,17.46399606729365]},"properties":{"FID":129,"CITY_NAME":"Dong Hoi","GMI_ADMIN":"VNM-QBN","ADMIN_NAME":"Quang Binh","FIPS_CNTRY":"VM","CNTRY_NAME":"Vietnam","STATUS":"Provincial capital","POP_RANK":7,"POP_CLASS":"Less than 50,000","PORT_ID":0,"LABEL_FLAG":0}},{"type":"Feature","id":130,"geometry":{"type":"Point","coordinates":[104.8001856252931,17.396973067231229]},"properties":{"FID":130,"CITY_NAME":"Muang Khammouan","GMI_ADMIN":"LAO-KHM","ADMIN_NAME":"Khammouan","FIPS_CNTRY":"LA","CNTRY_NAME":"Laos","STATUS":"Provincial capital","POP_RANK":7,"POP_CLASS":"Less than 50,000","PORT_ID":0,"LABEL_FLAG":0}},{"type":"Feature","id":131,"geometry":{"type":"Point","coordinates":[104.15099762468847,17.163000067013314]},"properties":{"FID":131,"CITY_NAME":"Sakon Nakhon","GMI_ADMIN":"THA-SNK","ADMIN_NAME":"Sakon Nakhon","FIPS_CNTRY":"TH","CNTRY_NAME":"Thailand","STATUS":"Provincial capital","POP_RANK":7,"POP_CLASS":"Less than 50,000","PORT_ID":0,"LABEL_FLAG":1}},{"type":"Feature","id":132,"geometry":{"type":"Point","coordinates":[134.49168065294546,7.3406160578655104]},"properties":{"FID":132,"CITY_NAME":"Koror","GMI_ADMIN":"PLW","ADMIN_NAME":"Palau","FIPS_CNTRY":"PS","CNTRY_NAME":"Palau","STATUS":"National and provincial capital","POP_RANK":7,"POP_CLASS":"Less than 50,000","PORT_ID":0,"LABEL_FLAG":0}},{"type":"Feature","id":133,"geometry":{"type":"Point","coordinates":[125.61368464467714,7.0800840576228694]},"properties":{"FID":133,"CITY_NAME":"Davao","GMI_ADMIN":"PHL-SMN","ADMIN_NAME":"Southern Mindanao","FIPS_CNTRY":"RP","CNTRY_NAME":"Philippines","STATUS":"Other","POP_RANK":3,"POP_CLASS":"500,000 to 1,000,000","PORT_ID":59430,"LABEL_FLAG":0}},{"type":"Feature","id":134,"geometry":{"type":"Point","coordinates":[124.8499986439659,1.4833350524104887]},"properties":{"FID":134,"CITY_NAME":"Manado","GMI_ADMIN":"IDN-SUT","ADMIN_NAME":"Sulawesi Utara","FIPS_CNTRY":"ID","CNTRY_NAME":"Indonesia","STATUS":"Provincial capital","POP_RANK":5,"POP_CLASS":"100,000 to 250,000","PORT_ID":52040,"LABEL_FLAG":0}},{"type":"Feature","id":135,"geometry":{"type":"Point","coordinates":[132.44500865103933,34.378002083046042]},"properties":{"FID":135,"CITY_NAME":"Hiroshima","GMI_ADMIN":"JPN-CGK","ADMIN_NAME":"Chugoku","FIPS_CNTRY":"JA","CNTRY_NAME":"Japan","STATUS":"Provincial capital","POP_RANK":2,"POP_CLASS":"1,000,000 to 5,000,000","PORT_ID":61650,"LABEL_FLAG":0}},{"type":"Feature","id":136,"geometry":{"type":"Point","coordinates":[132.77499365134665,33.834996082540329]},"properties":{"FID":136,"CITY_NAME":"Matsuyama","GMI_ADMIN":"JPN-SHK","ADMIN_NAME":"Shikoku","FIPS_CNTRY":"JA","CNTRY_NAME":"Japan","STATUS":"Provincial capital","POP_RANK":4,"POP_CLASS":"250,000 to 500,000","PORT_ID":62030,"LABEL_FLAG":0}},{"type":"Feature","id":137,"geometry":{"type":"Point","coordinates":[103.34300462393597,21.74000407127599]},"properties":{"FID":137,"CITY_NAME":"Luan Chau","GMI_ADMIN":"VNM-LCH","ADMIN_NAME":"Lai Chau","FIPS_CNTRY":"VM","CNTRY_NAME":"Vietnam","STATUS":"Provincial capital","POP_RANK":7,"POP_CLASS":"Less than 50,000","PORT_ID":0,"LABEL_FLAG":0}},{"type":"Feature","id":138,"geometry":{"type":"Point","coordinates":[102.09999662277832,21.683304071223176]},"properties":{"FID":138,"CITY_NAME":"Phongsali","GMI_ADMIN":"LAO-PHN","ADMIN_NAME":"Phongsali","FIPS_CNTRY":"LA","CNTRY_NAME":"Laos","STATUS":"Provincial capital","POP_RANK":7,"POP_CLASS":"Less than 50,000","PORT_ID":0,"LABEL_FLAG":1}},{"type":"Feature","id":139,"geometry":{"type":"Point","coordinates":[103.91000462446405,21.328002070892282]},"properties":{"FID":139,"CITY_NAME":"Son La","GMI_ADMIN":"VNM-SLA","ADMIN_NAME":"Son La","FIPS_CNTRY":"VM","CNTRY_NAME":"Vietnam","STATUS":"Provincial capital","POP_RANK":7,"POP_CLASS":"Less than 50,000","PORT_ID":0,"LABEL_FLAG":1}},{"type":"Feature","id":140,"geometry":{"type":"Point","coordinates":[101.41669862214198,20.950002070540236]},"properties":{"FID":140,"CITY_NAME":"Louang Namtha","GMI_ADMIN":"LAO-LNM","ADMIN_NAME":"Louang Namtha","FIPS_CNTRY":"LA","CNTRY_NAME":"Laos","STATUS":"Provincial capital","POP_RANK":7,"POP_CLASS":"Less than 50,000","PORT_ID":0,"LABEL_FLAG":1}},{"type":"Feature","id":141,"geometry":{"type":"Point","coordinates":[104.03330462457885,20.416698070043566]},"properties":{"FID":141,"CITY_NAME":"Xam Nua","GMI_ADMIN":"LAO-HPH","ADMIN_NAME":"Houaphan","FIPS_CNTRY":"LA","CNTRY_NAME":"Laos","STATUS":"Provincial capital","POP_RANK":7,"POP_CLASS":"Less than 50,000","PORT_ID":0,"LABEL_FLAG":0}},{"type":"Feature","id":142,"geometry":{"type":"Point","coordinates":[102.14199962281745,19.883997069547448]},"properties":{"FID":142,"CITY_NAME":"Louangphrabang","GMI_ADMIN":"LAO-LNG","ADMIN_NAME":"Louangphrabang","FIPS_CNTRY":"LA","CNTRY_NAME":"Laos","STATUS":"Provincial capital","POP_RANK":7,"POP_CLASS":"Less than 50,000","PORT_ID":0,"LABEL_FLAG":1}},{"type":"Feature","id":143,"geometry":{"type":"Point","coordinates":[130.93329664963144,33.949998082647426]},"properties":{"FID":143,"CITY_NAME":"Shimonoseki","GMI_ADMIN":"JPN-CGK","ADMIN_NAME":"Chugoku","FIPS_CNTRY":"JA","CNTRY_NAME":"Japan","STATUS":"Other","POP_RANK":4,"POP_CLASS":"250,000 to 500,000","PORT_ID":61700,"LABEL_FLAG":0}},{"type":"Feature","id":144,"geometry":{"type":"Point","coordinates":[96.084000617175519,21.97600207149577]},"properties":{"FID":144,"CITY_NAME":"Mandalay","GMI_ADMIN":"MMR-MND","ADMIN_NAME":"Mandalay","FIPS_CNTRY":"BM","CNTRY_NAME":"Myanmar","STATUS":"Provincial capital","POP_RANK":3,"POP_CLASS":"500,000 to 1,000,000","PORT_ID":0,"LABEL_FLAG":1}},{"type":"Feature","id":145,"geometry":{"type":"Point","coordinates":[95.961996617061885,21.87999907140636]},"properties":{"FID":145,"CITY_NAME":"Sagaing","GMI_ADMIN":"MMR-SGN","ADMIN_NAME":"Sagaing","FIPS_CNTRY":"BM","CNTRY_NAME":"Myanmar","STATUS":"Provincial capital","POP_RANK":7,"POP_CLASS":"Less than 50,000","PORT_ID":0,"LABEL_FLAG":1}},{"type":"Feature","id":146,"geometry":{"type":"Point","coordinates":[97.03800061806399,20.781999070383776]},"properties":{"FID":146,"CITY_NAME":"Taunggyi","GMI_ADMIN":"MMR-SST","ADMIN_NAME":"Shan State","FIPS_CNTRY":"BM","CNTRY_NAME":"Myanmar","STATUS":"Provincial capital","POP_RANK":5,"POP_CLASS":"100,000 to 250,000","PORT_ID":0,"LABEL_FLAG":0}},{"type":"Feature","id":147,"geometry":{"type":"Point","coordinates":[99.833004620667026,19.906002069567933]},"properties":{"FID":147,"CITY_NAME":"Chang Rai","GMI_ADMIN":"THA-CRA","ADMIN_NAME":"Chiang Rai","FIPS_CNTRY":"TH","CNTRY_NAME":"Thailand","STATUS":"Provincial capital","POP_RANK":7,"POP_CLASS":"Less than 50,000","PORT_ID":0,"LABEL_FLAG":0}},{"type":"Feature","id":148,"geometry":{"type":"Point","coordinates":[97.206003618220421,19.665000069343492]},"properties":{"FID":148,"CITY_NAME":"Loikaw","GMI_ADMIN":"MMR-KSE","ADMIN_NAME":"Kayah State","FIPS_CNTRY":"BM","CNTRY_NAME":"Myanmar","STATUS":"Provincial capital","POP_RANK":7,"POP_CLASS":"Less than 50,000","PORT_ID":0,"LABEL_FLAG":0}},{"type":"Feature","id":149,"geometry":{"type":"Point","coordinates":[97.968996618931016,19.301004069004492]},"properties":{"FID":149,"CITY_NAME":"Mae Hong Son","GMI_ADMIN":"THA-MHS","ADMIN_NAME":"Mae Hong Son","FIPS_CNTRY":"TH","CNTRY_NAME":"Thailand","STATUS":"Provincial capital","POP_RANK":7,"POP_CLASS":"Less than 50,000","PORT_ID":0,"LABEL_FLAG":1}},{"type":"Feature","id":150,"geometry":{"type":"Point","coordinates":[96.498000617561075,17.32799706716699]},"properties":{"FID":150,"CITY_NAME":"Pegu","GMI_ADMIN":"MMR-PEG","ADMIN_NAME":"Pegu","FIPS_CNTRY":"BM","CNTRY_NAME":"Myanmar","STATUS":"Provincial capital","POP_RANK":5,"POP_CLASS":"100,000 to 250,000","PORT_ID":0,"LABEL_FLAG":1}},{"type":"Feature","id":151,"geometry":{"type":"Point","coordinates":[99.17700362005607,10.493001060801404]},"properties":{"FID":151,"CITY_NAME":"Chumphon","GMI_ADMIN":"THA-CHM","ADMIN_NAME":"Chumphon","FIPS_CNTRY":"TH","CNTRY_NAME":"Thailand","STATUS":"Provincial capital","POP_RANK":7,"POP_CLASS":"Less than 50,000","PORT_ID":0,"LABEL_FLAG":1}},{"type":"Feature","id":152,"geometry":{"type":"Point","coordinates":[98.638002619554101,9.9620010603068607]},"properties":{"FID":152,"CITY_NAME":"Ranong","GMI_ADMIN":"THA-RNN","ADMIN_NAME":"Ranong","FIPS_CNTRY":"TH","CNTRY_NAME":"Thailand","STATUS":"Provincial capital","POP_RANK":7,"POP_CLASS":"Less than 50,000","PORT_ID":0,"LABEL_FLAG":1}},{"type":"Feature","id":153,"geometry":{"type":"Point","coordinates":[99.33399962020232,9.1350000595366581]},"properties":{"FID":153,"CITY_NAME":"Surat Thani","GMI_ADMIN":"THA-STH","ADMIN_NAME":"Surat Thani","FIPS_CNTRY":"TH","CNTRY_NAME":"Thailand","STATUS":"Provincial capital","POP_RANK":7,"POP_CLASS":"Less than 50,000","PORT_ID":0,"LABEL_FLAG":1}},{"type":"Feature","id":154,"geometry":{"type":"Point","coordinates":[98.533998619457208,8.4510000588996377]},"properties":{"FID":154,"CITY_NAME":"Phangnga","GMI_ADMIN":"THA-PHN","ADMIN_NAME":"Phangnga","FIPS_CNTRY":"TH","CNTRY_NAME":"Thailand","STATUS":"Provincial capital","POP_RANK":7,"POP_CLASS":"Less than 50,000","PORT_ID":0,"LABEL_FLAG":1}},{"type":"Feature","id":155,"geometry":{"type":"Point","coordinates":[98.385003619318496,7.8769980583650536]},"properties":{"FID":155,"CITY_NAME":"Phuket","GMI_ADMIN":"THA-PHK","ADMIN_NAME":"Phuket","FIPS_CNTRY":"TH","CNTRY_NAME":"Thailand","STATUS":"Provincial capital","POP_RANK":7,"POP_CLASS":"Less than 50,000","PORT_ID":49770,"LABEL_FLAG":1}},{"type":"Feature","id":156,"geometry":{"type":"Point","coordinates":[95.333337616476371,5.5666620562133886]},"properties":{"FID":156,"CITY_NAME":"Banda Aceh","GMI_ADMIN":"IDN-ACE","ADMIN_NAME":"Aceh","FIPS_CNTRY":"ID","CNTRY_NAME":"Indonesia","STATUS":"Provincial capital","POP_RANK":5,"POP_CLASS":"100,000 to 250,000","PORT_ID":0,"LABEL_FLAG":0}},{"type":"Feature","id":157,"geometry":{"type":"Point","coordinates":[101.07600362182464,4.590999055304728]},"properties":{"FID":157,"CITY_NAME":"Ipoh","GMI_ADMIN":"MYS-PER","ADMIN_NAME":"Perak","FIPS_CNTRY":"MY","CNTRY_NAME":"Malaysia","STATUS":"Provincial capital","POP_RANK":4,"POP_CLASS":"250,000 to 500,000","PORT_ID":0,"LABEL_FLAG":0}},{"type":"Feature","id":158,"geometry":{"type":"Point","coordinates":[98.676000619589473,3.5849970543678182]},"properties":{"FID":158,"CITY_NAME":"Medan","GMI_ADMIN":"IDN-SUA","ADMIN_NAME":"Sumatera Utara","FIPS_CNTRY":"ID","CNTRY_NAME":"Indonesia","STATUS":"Provincial capital","POP_RANK":2,"POP_CLASS":"1,000,000 to 5,000,000","PORT_ID":0,"LABEL_FLAG":0}},{"type":"Feature","id":159,"geometry":{"type":"Point","coordinates":[100.31100362111218,5.3640000560246435]},"properties":{"FID":159,"CITY_NAME":"Pinang","GMI_ADMIN":"MYS-PPN","ADMIN_NAME":"Pulau Pinang","FIPS_CNTRY":"MY","CNTRY_NAME":"Malaysia","STATUS":"Provincial capital","POP_RANK":5,"POP_CLASS":"100,000 to 250,000","PORT_ID":49850,"LABEL_FLAG":0}},{"type":"Feature","id":160,"geometry":{"type":"Point","coordinates":[99.964998620789942,8.4220020588726285]},"properties":{"FID":160,"CITY_NAME":"Nakhon Si Thammarat","GMI_ADMIN":"THA-NST","ADMIN_NAME":"Nakhon Si Thammarat","FIPS_CNTRY":"TH","CNTRY_NAME":"Thailand","STATUS":"Provincial capital","POP_RANK":6,"POP_CLASS":"50,000 to 100,000","PORT_ID":0,"LABEL_FLAG":1}},{"type":"Feature","id":161,"geometry":{"type":"Point","coordinates":[98.911998619809282,8.0520030585280438]},"properties":{"FID":161,"CITY_NAME":"Krabi","GMI_ADMIN":"THA-KRA","ADMIN_NAME":"Krabi","FIPS_CNTRY":"TH","CNTRY_NAME":"Thailand","STATUS":"Provincial capital","POP_RANK":7,"POP_CLASS":"Less than 50,000","PORT_ID":49780,"LABEL_FLAG":1}},{"type":"Feature","id":162,"geometry":{"type":"Point","coordinates":[100.08099962089798,7.6149990581210503]},"properties":{"FID":162,"CITY_NAME":"Phatthalung","GMI_ADMIN":"THA-PHL","ADMIN_NAME":"Phatthalung","FIPS_CNTRY":"TH","CNTRY_NAME":"Thailand","STATUS":"Provincial capital","POP_RANK":7,"POP_CLASS":"Less than 50,000","PORT_ID":0,"LABEL_FLAG":1}},{"type":"Feature","id":163,"geometry":{"type":"Point","coordinates":[99.614997620463981,7.5490020580595854]},"properties":{"FID":163,"CITY_NAME":"Trang","GMI_ADMIN":"THA-TRN","ADMIN_NAME":"Trang","FIPS_CNTRY":"TH","CNTRY_NAME":"Thailand","STATUS":"Provincial capital","POP_RANK":7,"POP_CLASS":"Less than 50,000","PORT_ID":0,"LABEL_FLAG":1}},{"type":"Feature","id":164,"geometry":{"type":"Point","coordinates":[100.59300062137484,7.197003057731763]},"properties":{"FID":164,"CITY_NAME":"Songkhla","GMI_ADMIN":"THA-SNG","ADMIN_NAME":"Songkhla","FIPS_CNTRY":"TH","CNTRY_NAME":"Thailand","STATUS":"Provincial capital","POP_RANK":6,"POP_CLASS":"50,000 to 100,000","PORT_ID":57434,"LABEL_FLAG":1}},{"type":"Feature","id":165,"geometry":{"type":"Point","coordinates":[100.06669862088469,6.6167010571913139]},"properties":{"FID":165,"CITY_NAME":"Satun","GMI_ADMIN":"THA-SAT","ADMIN_NAME":"Satun","FIPS_CNTRY":"TH","CNTRY_NAME":"Thailand","STATUS":"Provincial capital","POP_RANK":7,"POP_CLASS":"Less than 50,000","PORT_ID":0,"LABEL_FLAG":1}},{"type":"Feature","id":166,"geometry":{"type":"Point","coordinates":[100.18999862099949,6.4330020570202251]},"properties":{"FID":166,"CITY_NAME":"Kangar","GMI_ADMIN":"MYS-PRL","ADMIN_NAME":"Perlis","FIPS_CNTRY":"MY","CNTRY_NAME":"Malaysia","STATUS":"Provincial capital","POP_RANK":7,"POP_CLASS":"Less than 50,000","PORT_ID":0,"LABEL_FLAG":0}},{"type":"Feature","id":167,"geometry":{"type":"Point","coordinates":[100.3619976211597,6.1110000567203429]},"properties":{"FID":167,"CITY_NAME":"Alor Setar","GMI_ADMIN":"MYS-KED","ADMIN_NAME":"Kedah","FIPS_CNTRY":"MY","CNTRY_NAME":"Malaysia","STATUS":"Provincial capital","POP_RANK":6,"POP_CLASS":"50,000 to 100,000","PORT_ID":49840,"LABEL_FLAG":0}},{"type":"Feature","id":168,"geometry":{"type":"Point","coordinates":[91.825002613208966,22.329999071825455]},"properties":{"FID":168,"CITY_NAME":"Chittagong","GMI_ADMIN":"BGD-CHT","ADMIN_NAME":"Chittagong","FIPS_CNTRY":"BG","CNTRY_NAME":"Bangladesh","STATUS":"Provincial capital","POP_RANK":2,"POP_CLASS":"1,000,000 to 5,000,000","PORT_ID":49590,"LABEL_FLAG":1}},{"type":"Feature","id":169,"geometry":{"type":"Point","coordinates":[94.917996616089596,20.140002069785865]},"properties":{"FID":169,"CITY_NAME":"Magway","GMI_ADMIN":"MMR-MAG","ADMIN_NAME":"Magwe","FIPS_CNTRY":"BM","CNTRY_NAME":"Myanmar","STATUS":"Provincial capital","POP_RANK":6,"POP_CLASS":"50,000 to 100,000","PORT_ID":0,"LABEL_FLAG":0}},{"type":"Feature","id":170,"geometry":{"type":"Point","coordinates":[92.895003614205535,20.139003069784934]},"properties":{"FID":170,"CITY_NAME":"Sittwe","GMI_ADMIN":"MMR-AST","ADMIN_NAME":"Arakan State","FIPS_CNTRY":"BM","CNTRY_NAME":"Myanmar","STATUS":"Provincial capital","POP_RANK":5,"POP_CLASS":"100,000 to 250,000","PORT_ID":49620,"LABEL_FLAG":0}},{"type":"Feature","id":171,"geometry":{"type":"Point","coordinates":[96.124887617213545,16.872228066742522]},"properties":{"FID":171,"CITY_NAME":"Rangoon","GMI_ADMIN":"MMR-RNG","ADMIN_NAME":"Rangoon","FIPS_CNTRY":"BM","CNTRY_NAME":"Myanmar","STATUS":"National and provincial capital","POP_RANK":2,"POP_CLASS":"1,000,000 to 5,000,000","PORT_ID":49650,"LABEL_FLAG":1}},{"type":"Feature","id":172,"geometry":{"type":"Point","coordinates":[97.616700618602948,16.84999806672181]},"properties":{"FID":172,"CITY_NAME":"Pa-an","GMI_ADMIN":"MMR-KSA","ADMIN_NAME":"Karen State","FIPS_CNTRY":"BM","CNTRY_NAME":"Myanmar","STATUS":"Provincial capital","POP_RANK":7,"POP_CLASS":"Less than 50,000","PORT_ID":0,"LABEL_FLAG":0}},{"type":"Feature","id":173,"geometry":{"type":"Point","coordinates":[94.732002615916343,16.774002066651036]},"properties":{"FID":173,"CITY_NAME":"Bassein","GMI_ADMIN":"MMR-IRR","ADMIN_NAME":"Irrawaddy","FIPS_CNTRY":"BM","CNTRY_NAME":"Myanmar","STATUS":"Provincial capital","POP_RANK":5,"POP_CLASS":"100,000 to 250,000","PORT_ID":49640,"LABEL_FLAG":0}},{"type":"Feature","id":174,"geometry":{"type":"Point","coordinates":[97.645032618629301,16.492680066389028]},"properties":{"FID":174,"CITY_NAME":"Moulmein","GMI_ADMIN":"MMR-MST","ADMIN_NAME":"Mon State","FIPS_CNTRY":"BM","CNTRY_NAME":"Myanmar","STATUS":"Provincial capital","POP_RANK":5,"POP_CLASS":"100,000 to 250,000","PORT_ID":49660,"LABEL_FLAG":0}},{"type":"Feature","id":175,"geometry":{"type":"Point","coordinates":[98.201997619148045,14.084001064145781]},"properties":{"FID":175,"CITY_NAME":"Tavoy","GMI_ADMIN":"MMR-TNS","ADMIN_NAME":"Tenasserim","FIPS_CNTRY":"BM","CNTRY_NAME":"Myanmar","STATUS":"Provincial capital","POP_RANK":6,"POP_CLASS":"50,000 to 100,000","PORT_ID":49680,"LABEL_FLAG":0}},{"type":"Feature","id":176,"geometry":{"type":"Point","coordinates":[92.758329614078235,11.667564061895291]},"properties":{"FID":176,"CITY_NAME":"Port Blair","GMI_ADMIN":"IND-AAN","ADMIN_NAME":"Andaman and Nicobar Islands","FIPS_CNTRY":"IN","CNTRY_NAME":"India","STATUS":"Provincial capital","POP_RANK":6,"POP_CLASS":"50,000 to 100,000","PORT_ID":49720,"LABEL_FLAG":0}},{"type":"Feature","id":177,"geometry":{"type":"Point","coordinates":[99.903996620733125,19.15900206887224]},"properties":{"FID":177,"CITY_NAME":"Phayao","GMI_ADMIN":"THA-PHA","ADMIN_NAME":"Phayao","FIPS_CNTRY":"TH","CNTRY_NAME":"Thailand","STATUS":"Provincial capital","POP_RANK":7,"POP_CLASS":"Less than 50,000","PORT_ID":0,"LABEL_FLAG":1}},{"type":"Feature","id":178,"geometry":{"type":"Point","coordinates":[99.00000061989121,18.786996068525781]},"properties":{"FID":178,"CITY_NAME":"Chiang Mai","GMI_ADMIN":"THA-CMA","ADMIN_NAME":"Chiang Mai","FIPS_CNTRY":"TH","CNTRY_NAME":"Thailand","STATUS":"Provincial capital","POP_RANK":5,"POP_CLASS":"100,000 to 250,000","PORT_ID":0,"LABEL_FLAG":1}},{"type":"Feature","id":179,"geometry":{"type":"Point","coordinates":[100.78499762155363,18.775998068515534]},"properties":{"FID":179,"CITY_NAME":"Nan","GMI_ADMIN":"THA-NAN","ADMIN_NAME":"Nan","FIPS_CNTRY":"TH","CNTRY_NAME":"Thailand","STATUS":"Provincial capital","POP_RANK":7,"POP_CLASS":"Less than 50,000","PORT_ID":0,"LABEL_FLAG":1}},{"type":"Feature","id":180,"geometry":{"type":"Point","coordinates":[99.073998619960122,18.503001068261298]},"properties":{"FID":180,"CITY_NAME":"Lamphun","GMI_ADMIN":"THA-LMP","ADMIN_NAME":"Lamphun","FIPS_CNTRY":"TH","CNTRY_NAME":"Thailand","STATUS":"Provincial capital","POP_RANK":7,"POP_CLASS":"Less than 50,000","PORT_ID":0,"LABEL_FLAG":1}},{"type":"Feature","id":181,"geometry":{"type":"Point","coordinates":[99.484002620342011,18.291996068064776]},"properties":{"FID":181,"CITY_NAME":"Lampang","GMI_ADMIN":"THA-LMN","ADMIN_NAME":"Lampang","FIPS_CNTRY":"TH","CNTRY_NAME":"Thailand","STATUS":"Provincial capital","POP_RANK":7,"POP_CLASS":"Less than 50,000","PORT_ID":0,"LABEL_FLAG":1}},{"type":"Feature","id":182,"geometry":{"type":"Point","coordinates":[100.16299862097438,18.150003067932531]},"properties":{"FID":182,"CITY_NAME":"Phrae","GMI_ADMIN":"THA-PHR","ADMIN_NAME":"Phrae","FIPS_CNTRY":"TH","CNTRY_NAME":"Thailand","STATUS":"Provincial capital","POP_RANK":7,"POP_CLASS":"Less than 50,000","PORT_ID":0,"LABEL_FLAG":1}},{"type":"Feature","id":183,"geometry":{"type":"Point","coordinates":[100.10300462091848,17.622999067441725]},"properties":{"FID":183,"CITY_NAME":"Uttaradit","GMI_ADMIN":"THA-UTT","ADMIN_NAME":"Uttaradit","FIPS_CNTRY":"TH","CNTRY_NAME":"Thailand","STATUS":"Provincial capital","POP_RANK":7,"POP_CLASS":"Less than 50,000","PORT_ID":0,"LABEL_FLAG":1}},{"type":"Feature","id":184,"geometry":{"type":"Point","coordinates":[99.74999762058971,17.012997066873623]},"properties":{"FID":184,"CITY_NAME":"Sukhothai","GMI_ADMIN":"THA-SKH","ADMIN_NAME":"Sukhothai","FIPS_CNTRY":"TH","CNTRY_NAME":"Thailand","STATUS":"Provincial capital","POP_RANK":7,"POP_CLASS":"Less than 50,000","PORT_ID":0,"LABEL_FLAG":1}},{"type":"Feature","id":185,"geometry":{"type":"Point","coordinates":[99.119997620002977,16.877997066747895]},"properties":{"FID":185,"CITY_NAME":"Tak","GMI_ADMIN":"THA-TAK","ADMIN_NAME":"Tak","FIPS_CNTRY":"TH","CNTRY_NAME":"Thailand","STATUS":"Provincial capital","POP_RANK":7,"POP_CLASS":"Less than 50,000","PORT_ID":0,"LABEL_FLAG":1}},{"type":"Feature","id":186,"geometry":{"type":"Point","coordinates":[101.15900162190198,16.418997066320415]},"properties":{"FID":186,"CITY_NAME":"Phetchabun","GMI_ADMIN":"THA-PHH","ADMIN_NAME":"Phetchabun","FIPS_CNTRY":"TH","CNTRY_NAME":"Thailand","STATUS":"Provincial capital","POP_RANK":7,"POP_CLASS":"Less than 50,000","PORT_ID":0,"LABEL_FLAG":1}},{"type":"Feature","id":187,"geometry":{"type":"Point","coordinates":[100.02600062084676,15.379002065351841]},"properties":{"FID":187,"CITY_NAME":"Uthai Thani","GMI_ADMIN":"THA-UTH","ADMIN_NAME":"Uthai Thani","FIPS_CNTRY":"TH","CNTRY_NAME":"Thailand","STATUS":"Provincial capital","POP_RANK":7,"POP_CLASS":"Less than 50,000","PORT_ID":0,"LABEL_FLAG":1}},{"type":"Feature","id":188,"geometry":{"type":"Point","coordinates":[100.12599962093989,15.179004065165572]},"properties":{"FID":188,"CITY_NAME":"Chainat","GMI_ADMIN":"THA-CNA","ADMIN_NAME":"Chai Nat","FIPS_CNTRY":"TH","CNTRY_NAME":"Thailand","STATUS":"Provincial capital","POP_RANK":7,"POP_CLASS":"Less than 50,000","PORT_ID":0,"LABEL_FLAG":0}},{"type":"Feature","id":189,"geometry":{"type":"Point","coordinates":[100.401003621196,14.886999064893629]},"properties":{"FID":189,"CITY_NAME":"Sing Buri","GMI_ADMIN":"THA-SBU","ADMIN_NAME":"Sing Buri","FIPS_CNTRY":"TH","CNTRY_NAME":"Thailand","STATUS":"Provincial capital","POP_RANK":7,"POP_CLASS":"Less than 50,000","PORT_ID":0,"LABEL_FLAG":1}},{"type":"Feature","id":190,"geometry":{"type":"Point","coordinates":[100.61900162139906,14.79699906480981]},"properties":{"FID":190,"CITY_NAME":"Thahanbok Lop Buri","GMI_ADMIN":"THA-LBU","ADMIN_NAME":"Lop Buri","FIPS_CNTRY":"TH","CNTRY_NAME":"Thailand","STATUS":"Provincial capital","POP_RANK":7,"POP_CLASS":"Less than 50,000","PORT_ID":0,"LABEL_FLAG":0}},{"type":"Feature","id":191,"geometry":{"type":"Point","coordinates":[100.44999962124163,14.583303064610789]},"properties":{"FID":191,"CITY_NAME":"Ang Thong","GMI_ADMIN":"THA-ATH","ADMIN_NAME":"Ang Thong","FIPS_CNTRY":"TH","CNTRY_NAME":"Thailand","STATUS":"Provincial capital","POP_RANK":7,"POP_CLASS":"Less than 50,000","PORT_ID":0,"LABEL_FLAG":1}},{"type":"Feature","id":192,"geometry":{"type":"Point","coordinates":[100.12899662094267,14.471001064506197]},"properties":{"FID":192,"CITY_NAME":"Supham Buri","GMI_ADMIN":"THA-SBR","ADMIN_NAME":"Suphan Buri","FIPS_CNTRY":"TH","CNTRY_NAME":"Thailand","STATUS":"Provincial capital","POP_RANK":7,"POP_CLASS":"Less than 50,000","PORT_ID":0,"LABEL_FLAG":0}},{"type":"Feature","id":193,"geometry":{"type":"Point","coordinates":[100.56099662134503,14.344002064387922]},"properties":{"FID":193,"CITY_NAME":"Phra Nakhon Si Ayutthaya","GMI_ADMIN":"THA-PNS","ADMIN_NAME":"Phra Nakhon Si Ayutthaya","FIPS_CNTRY":"TH","CNTRY_NAME":"Thailand","STATUS":"Provincial capital","POP_RANK":6,"POP_CLASS":"50,000 to 100,000","PORT_ID":0,"LABEL_FLAG":1}},{"type":"Feature","id":194,"geometry":{"type":"Point","coordinates":[100.26600362107027,16.812999066687354]},"properties":{"FID":194,"CITY_NAME":"Phitsanulok","GMI_ADMIN":"THA-PHT","ADMIN_NAME":"Phitsanulok","FIPS_CNTRY":"TH","CNTRY_NAME":"Thailand","STATUS":"Provincial capital","POP_RANK":6,"POP_CLASS":"50,000 to 100,000","PORT_ID":0,"LABEL_FLAG":1}},{"type":"Feature","id":195,"geometry":{"type":"Point","coordinates":[99.52900262038392,16.472997066370709]},"properties":{"FID":195,"CITY_NAME":"Kamphaeng Phet","GMI_ADMIN":"THA-KPH","ADMIN_NAME":"Kamphaeng Phet","FIPS_CNTRY":"TH","CNTRY_NAME":"Thailand","STATUS":"Provincial capital","POP_RANK":7,"POP_CLASS":"Less than 50,000","PORT_ID":0,"LABEL_FLAG":1}},{"type":"Feature","id":196,"geometry":{"type":"Point","coordinates":[100.34900162114761,16.439004066339038]},"properties":{"FID":196,"CITY_NAME":"Phichit","GMI_ADMIN":"THA-PHC","ADMIN_NAME":"Phichit","FIPS_CNTRY":"TH","CNTRY_NAME":"Thailand","STATUS":"Provincial capital","POP_RANK":7,"POP_CLASS":"Less than 50,000","PORT_ID":0,"LABEL_FLAG":1}},{"type":"Feature","id":197,"geometry":{"type":"Point","coordinates":[100.13400062094738,15.70100406565173]},"properties":{"FID":197,"CITY_NAME":"Nakhon Sawan","GMI_ADMIN":"THA-NSA","ADMIN_NAME":"Nakhon Sawan","FIPS_CNTRY":"TH","CNTRY_NAME":"Thailand","STATUS":"Provincial capital","POP_RANK":5,"POP_CLASS":"100,000 to 250,000","PORT_ID":0,"LABEL_FLAG":1}},{"type":"Feature","id":198,"geometry":{"type":"Point","coordinates":[100.9140036216738,14.513004064545314]},"properties":{"FID":198,"CITY_NAME":"Saraburi","GMI_ADMIN":"THA-SRB","ADMIN_NAME":"Saraburi","FIPS_CNTRY":"TH","CNTRY_NAME":"Thailand","STATUS":"Provincial capital","POP_RANK":6,"POP_CLASS":"50,000 to 100,000","PORT_ID":0,"LABEL_FLAG":1}},{"type":"Feature","id":199,"geometry":{"type":"Point","coordinates":[101.21599862195504,14.200002064253809]},"properties":{"FID":199,"CITY_NAME":"Nakhon Nayok","GMI_ADMIN":"THA-NNA","ADMIN_NAME":"Nakhon Nayok","FIPS_CNTRY":"TH","CNTRY_NAME":"Thailand","STATUS":"Provincial capital","POP_RANK":7,"POP_CLASS":"Less than 50,000","PORT_ID":0,"LABEL_FLAG":1}},{"type":"Feature","id":200,"geometry":{"type":"Point","coordinates":[100.53330362131922,14.016699064083099]},"properties":{"FID":200,"CITY_NAME":"Pathum Thani","GMI_ADMIN":"THA-PTH","ADMIN_NAME":"Pathum Thani","FIPS_CNTRY":"TH","CNTRY_NAME":"Thailand","STATUS":"Provincial capital","POP_RANK":7,"POP_CLASS":"Less than 50,000","PORT_ID":0,"LABEL_FLAG":1}},{"type":"Feature","id":201,"geometry":{"type":"Point","coordinates":[100.51985762130673,13.848039063926024]},"properties":{"FID":201,"CITY_NAME":"Nonthaburi","GMI_ADMIN":"THA-NNT","ADMIN_NAME":"Nonthaburi","FIPS_CNTRY":"TH","CNTRY_NAME":"Thailand","STATUS":"Provincial capital","POP_RANK":7,"POP_CLASS":"Less than 50,000","PORT_ID":0,"LABEL_FLAG":1}},{"type":"Feature","id":202,"geometry":{"type":"Point","coordinates":[100.51667162130374,13.750002063834714]},"properties":{"FID":202,"CITY_NAME":"Bangkok","GMI_ADMIN":"THA-KTH","ADMIN_NAME":"Krung Thep","FIPS_CNTRY":"TH","CNTRY_NAME":"Thailand","STATUS":"National and provincial capital","POP_RANK":1,"POP_CLASS":"5,000,000 and greater","PORT_ID":57450,"LABEL_FLAG":0}},{"type":"Feature","id":203,"geometry":{"type":"Point","coordinates":[101.07600362182464,13.679001063768595]},"properties":{"FID":203,"CITY_NAME":"Chachoengsao","GMI_ADMIN":"THA-CHC","ADMIN_NAME":"Chachoengsao","FIPS_CNTRY":"TH","CNTRY_NAME":"Thailand","STATUS":"Provincial capital","POP_RANK":7,"POP_CLASS":"Less than 50,000","PORT_ID":0,"LABEL_FLAG":1}},{"type":"Feature","id":204,"geometry":{"type":"Point","coordinates":[100.60399862138505,13.588002063683845]},"properties":{"FID":204,"CITY_NAME":"Samut Prakan","GMI_ADMIN":"THA-SPR","ADMIN_NAME":"Samut Prakan","FIPS_CNTRY":"TH","CNTRY_NAME":"Thailand","STATUS":"Provincial capital","POP_RANK":6,"POP_CLASS":"50,000 to 100,000","PORT_ID":0,"LABEL_FLAG":1}},{"type":"Feature","id":205,"geometry":{"type":"Point","coordinates":[100.27400462107775,13.536000063635413]},"properties":{"FID":205,"CITY_NAME":"Samut Sakhon","GMI_ADMIN":"THA-SSH","ADMIN_NAME":"Samut Sakhon","FIPS_CNTRY":"TH","CNTRY_NAME":"Thailand","STATUS":"Provincial capital","POP_RANK":6,"POP_CLASS":"50,000 to 100,000","PORT_ID":0,"LABEL_FLAG":1}},{"type":"Feature","id":206,"geometry":{"type":"Point","coordinates":[100.98700262174177,13.367997063478953]},"properties":{"FID":206,"CITY_NAME":"Chon Buri","GMI_ADMIN":"THA-CBU","ADMIN_NAME":"Chon Buri","FIPS_CNTRY":"TH","CNTRY_NAME":"Thailand","STATUS":"Provincial capital","POP_RANK":7,"POP_CLASS":"Less than 50,000","PORT_ID":0,"LABEL_FLAG":1}},{"type":"Feature","id":207,"geometry":{"type":"Point","coordinates":[99.800001620636266,11.802996062021421]},"properties":{"FID":207,"CITY_NAME":"Prachuap Khiri Khan","GMI_ADMIN":"THA-PKK","ADMIN_NAME":"Prachuap Khiri Khan","FIPS_CNTRY":"TH","CNTRY_NAME":"Thailand","STATUS":"Provincial capital","POP_RANK":7,"POP_CLASS":"Less than 50,000","PORT_ID":0,"LABEL_FLAG":1}},{"type":"Feature","id":208,"geometry":{"type":"Point","coordinates":[99.516699620372464,14.033304064098559]},"properties":{"FID":208,"CITY_NAME":"Kanchanaburi","GMI_ADMIN":"THA-KNC","ADMIN_NAME":"Kanchanaburi","FIPS_CNTRY":"TH","CNTRY_NAME":"Thailand","STATUS":"Provincial capital","POP_RANK":7,"POP_CLASS":"Less than 50,000","PORT_ID":0,"LABEL_FLAG":1}},{"type":"Feature","id":209,"geometry":{"type":"Point","coordinates":[100.06399862088213,13.817997063898048]},"properties":{"FID":209,"CITY_NAME":"Nakhon Pathom","GMI_ADMIN":"THA-NPT","ADMIN_NAME":"Nakhon Pathom","FIPS_CNTRY":"TH","CNTRY_NAME":"Thailand","STATUS":"Provincial capital","POP_RANK":7,"POP_CLASS":"Less than 50,000","PORT_ID":0,"LABEL_FLAG":1}},{"type":"Feature","id":210,"geometry":{"type":"Point","coordinates":[99.900000620729401,13.500000063601888]},"properties":{"FID":210,"CITY_NAME":"Ratchaburi","GMI_ADMIN":"THA-RTC","ADMIN_NAME":"Ratchaburi","FIPS_CNTRY":"TH","CNTRY_NAME":"Thailand","STATUS":"Provincial capital","POP_RANK":7,"POP_CLASS":"Less than 50,000","PORT_ID":0,"LABEL_FLAG":1}},{"type":"Feature","id":211,"geometry":{"type":"Point","coordinates":[100.00099862082348,13.412997063520862]},"properties":{"FID":211,"CITY_NAME":"Samut Songkhram","GMI_ADMIN":"THA-SSN","ADMIN_NAME":"Samut Songkhram","FIPS_CNTRY":"TH","CNTRY_NAME":"Thailand","STATUS":"Provincial capital","POP_RANK":7,"POP_CLASS":"Less than 50,000","PORT_ID":0,"LABEL_FLAG":1}},{"type":"Feature","id":212,"geometry":{"type":"Point","coordinates":[99.950004620776014,13.100004063229363]},"properties":{"FID":212,"CITY_NAME":"Phet Buri","GMI_ADMIN":"THA-PHB","ADMIN_NAME":"Phetchaburi","FIPS_CNTRY":"TH","CNTRY_NAME":"Thailand","STATUS":"Provincial capital","POP_RANK":7,"POP_CLASS":"Less than 50,000","PORT_ID":0,"LABEL_FLAG":0}},{"type":"Feature","id":213,"geometry":{"type":"Point","coordinates":[108.35000162859907,21.750003071285292]},"properties":{"FID":213,"CITY_NAME":"Fangcheng Gang","GMI_ADMIN":"CHN-GNG","ADMIN_NAME":"Guangxi","FIPS_CNTRY":"CH","CNTRY_NAME":"China","STATUS":"Other","POP_RANK":3,"POP_CLASS":"500,000 to 1,000,000","PORT_ID":57745,"LABEL_FLAG":0}},{"type":"Feature","id":214,"geometry":{"type":"Point","coordinates":[107.08100162741724,20.948004070538374]},"properties":{"FID":214,"CITY_NAME":"Hon Gai","GMI_ADMIN":"VNM-QNI","ADMIN_NAME":"Quang Ninh","FIPS_CNTRY":"VM","CNTRY_NAME":"Vietnam","STATUS":"Provincial capital","POP_RANK":5,"POP_CLASS":"100,000 to 250,000","PORT_ID":57700,"LABEL_FLAG":0}},{"type":"Feature","id":215,"geometry":{"type":"Point","coordinates":[104.74700462524353,16.560999066452666]},"properties":{"FID":215,"CITY_NAME":"Savannakhet","GMI_ADMIN":"LAO-SVN","ADMIN_NAME":"Savannakhet","FIPS_CNTRY":"LA","CNTRY_NAME":"Laos","STATUS":"Provincial capital","POP_RANK":6,"POP_CLASS":"50,000 to 100,000","PORT_ID":0,"LABEL_FLAG":1}},{"type":"Feature","id":216,"geometry":{"type":"Point","coordinates":[104.15099762468847,15.787998065732751]},"properties":{"FID":216,"CITY_NAME":"Yasothon","GMI_ADMIN":"THA-YST","ADMIN_NAME":"Yasothon","FIPS_CNTRY":"TH","CNTRY_NAME":"Thailand","STATUS":"Provincial capital","POP_RANK":7,"POP_CLASS":"Less than 50,000","PORT_ID":0,"LABEL_FLAG":1}},{"type":"Feature","id":217,"geometry":{"type":"Point","coordinates":[106.42699862680817,15.715998065665687]},"properties":{"FID":217,"CITY_NAME":"Saravan","GMI_ADMIN":"LAO-SRV","ADMIN_NAME":"Saravan","FIPS_CNTRY":"LA","CNTRY_NAME":"Laos","STATUS":"Provincial capital","POP_RANK":7,"POP_CLASS":"Less than 50,000","PORT_ID":0,"LABEL_FLAG":1}},{"type":"Feature","id":218,"geometry":{"type":"Point","coordinates":[104.85700262534598,15.238998065221452]},"properties":{"FID":218,"CITY_NAME":"Ubon Ratchathani","GMI_ADMIN":"THA-URT","ADMIN_NAME":"Ubon Ratchathani","FIPS_CNTRY":"TH","CNTRY_NAME":"Thailand","STATUS":"Provincial capital","POP_RANK":5,"POP_CLASS":"100,000 to 250,000","PORT_ID":0,"LABEL_FLAG":1}},{"type":"Feature","id":219,"geometry":{"type":"Point","coordinates":[104.33300462485798,15.113997065105039]},"properties":{"FID":219,"CITY_NAME":"Sisaket","GMI_ADMIN":"THA-SSK","ADMIN_NAME":"Sisaket","FIPS_CNTRY":"TH","CNTRY_NAME":"Thailand","STATUS":"Provincial capital","POP_RANK":7,"POP_CLASS":"Less than 50,000","PORT_ID":0,"LABEL_FLAG":1}},{"type":"Feature","id":220,"geometry":{"type":"Point","coordinates":[105.86670362628635,14.883300064890179]},"properties":{"FID":220,"CITY_NAME":"Champasak","GMI_ADMIN":"LAO-CHM","ADMIN_NAME":"Champasak","FIPS_CNTRY":"LA","CNTRY_NAME":"Laos","STATUS":"Provincial capital","POP_RANK":7,"POP_CLASS":"Less than 50,000","PORT_ID":0,"LABEL_FLAG":1}},{"type":"Feature","id":221,"geometry":{"type":"Point","coordinates":[106.83900062719189,14.807997064820057]},"properties":{"FID":221,"CITY_NAME":"Attapu","GMI_ADMIN":"LAO-ATT","ADMIN_NAME":"Attapeu","FIPS_CNTRY":"LA","CNTRY_NAME":"Laos","STATUS":"Provincial capital","POP_RANK":7,"POP_CLASS":"Less than 50,000","PORT_ID":0,"LABEL_FLAG":0}},{"type":"Feature","id":222,"geometry":{"type":"Point","coordinates":[101.37799862210593,14.049000064113173]},"properties":{"FID":222,"CITY_NAME":"Prachin Buri","GMI_ADMIN":"THA-PBU","ADMIN_NAME":"Prachin Buri","FIPS_CNTRY":"TH","CNTRY_NAME":"Thailand","STATUS":"Provincial capital","POP_RANK":7,"POP_CLASS":"Less than 50,000","PORT_ID":0,"LABEL_FLAG":1}},{"type":"Feature","id":223,"geometry":{"type":"Point","coordinates":[103.86399662442116,13.368996063479884]},"properties":{"FID":223,"CITY_NAME":"Siemreab","GMI_ADMIN":"KHM-SOM","ADMIN_NAME":"Siemreab-Otdar Meanchey","FIPS_CNTRY":"CB","CNTRY_NAME":"Cambodia","STATUS":"Provincial capital","POP_RANK":6,"POP_CLASS":"50,000 to 100,000","PORT_ID":0,"LABEL_FLAG":0}},{"type":"Feature","id":224,"geometry":{"type":"Point","coordinates":[103.20399962380654,13.088997063219111]},"properties":{"FID":224,"CITY_NAME":"Batdambang","GMI_ADMIN":"KHM-BTD","ADMIN_NAME":"Batdambang","FIPS_CNTRY":"CB","CNTRY_NAME":"Cambodia","STATUS":"Provincial capital","POP_RANK":6,"POP_CLASS":"50,000 to 100,000","PORT_ID":0,"LABEL_FLAG":1}},{"type":"Feature","id":225,"geometry":{"type":"Point","coordinates":[101.28500162201928,12.677004062835408]},"properties":{"FID":225,"CITY_NAME":"Rayong","GMI_ADMIN":"THA-RYN","ADMIN_NAME":"Rayong","FIPS_CNTRY":"TH","CNTRY_NAME":"Thailand","STATUS":"Provincial capital","POP_RANK":7,"POP_CLASS":"Less than 50,000","PORT_ID":0,"LABEL_FLAG":1}},{"type":"Feature","id":226,"geometry":{"type":"Point","coordinates":[102.11699762279417,12.60600306276929]},"properties":{"FID":226,"CITY_NAME":"Chanthaburi","GMI_ADMIN":"THA-CHN","ADMIN_NAME":"Chanthaburi","FIPS_CNTRY":"TH","CNTRY_NAME":"Thailand","STATUS":"Provincial capital","POP_RANK":7,"POP_CLASS":"Less than 50,000","PORT_ID":0,"LABEL_FLAG":1}},{"type":"Feature","id":227,"geometry":{"type":"Point","coordinates":[103.92800462448079,12.534003062702226]},"properties":{"FID":227,"CITY_NAME":"Pouthisat","GMI_ADMIN":"KHM-PTH","ADMIN_NAME":"Pouthisat","FIPS_CNTRY":"CB","CNTRY_NAME":"Cambodia","STATUS":"Provincial capital","POP_RANK":7,"POP_CLASS":"Less than 50,000","PORT_ID":0,"LABEL_FLAG":1}},{"type":"Feature","id":228,"geometry":{"type":"Point","coordinates":[102.50900162315926,12.237003062425629]},"properties":{"FID":228,"CITY_NAME":"Trat","GMI_ADMIN":"THA-TRA","ADMIN_NAME":"Trat","FIPS_CNTRY":"TH","CNTRY_NAME":"Thailand","STATUS":"Provincial capital","POP_RANK":7,"POP_CLASS":"Less than 50,000","PORT_ID":0,"LABEL_FLAG":1}},{"type":"Feature","id":229,"geometry":{"type":"Point","coordinates":[103.04263862365625,11.613933061845344]},"properties":{"FID":229,"CITY_NAME":"Krong Kaoh Kong","GMI_ADMIN":"KHM-KKO","ADMIN_NAME":"Kaoh Kong","FIPS_CNTRY":"CB","CNTRY_NAME":"Cambodia","STATUS":"Provincial capital","POP_RANK":7,"POP_CLASS":"Less than 50,000","PORT_ID":0,"LABEL_FLAG":0}},{"type":"Feature","id":230,"geometry":{"type":"Point","coordinates":[102.83699762346473,16.43300106633346]},"properties":{"FID":230,"CITY_NAME":"Khon Kaen","GMI_ADMIN":"THA-KKA","ADMIN_NAME":"Khon Kaen","FIPS_CNTRY":"TH","CNTRY_NAME":"Thailand","STATUS":"Provincial capital","POP_RANK":5,"POP_CLASS":"100,000 to 250,000","PORT_ID":0,"LABEL_FLAG":1}},{"type":"Feature","id":231,"geometry":{"type":"Point","coordinates":[103.50900062409059,16.4279970663288]},"properties":{"FID":231,"CITY_NAME":"Kalasin","GMI_ADMIN":"THA-KLS","ADMIN_NAME":"Kalasin","FIPS_CNTRY":"TH","CNTRY_NAME":"Thailand","STATUS":"Provincial capital","POP_RANK":7,"POP_CLASS":"Less than 50,000","PORT_ID":0,"LABEL_FLAG":1}},{"type":"Feature","id":232,"geometry":{"type":"Point","coordinates":[103.29800462389406,16.183998066101552]},"properties":{"FID":232,"CITY_NAME":"Maha Sarakham","GMI_ADMIN":"THA-MSR","ADMIN_NAME":"Maha Sarakham","FIPS_CNTRY":"TH","CNTRY_NAME":"Thailand","STATUS":"Provincial capital","POP_RANK":7,"POP_CLASS":"Less than 50,000","PORT_ID":0,"LABEL_FLAG":1}},{"type":"Feature","id":233,"geometry":{"type":"Point","coordinates":[103.65499862422652,16.050996065977685]},"properties":{"FID":233,"CITY_NAME":"Roi Et","GMI_ADMIN":"THA-RET","ADMIN_NAME":"Roi Et","FIPS_CNTRY":"TH","CNTRY_NAME":"Thailand","STATUS":"Provincial capital","POP_RANK":7,"POP_CLASS":"Less than 50,000","PORT_ID":0,"LABEL_FLAG":1}},{"type":"Feature","id":234,"geometry":{"type":"Point","coordinates":[102.04000262272243,15.797997065742067]},"properties":{"FID":234,"CITY_NAME":"Chaiyaphum","GMI_ADMIN":"THA-CHY","ADMIN_NAME":"Chaiyaphum","FIPS_CNTRY":"TH","CNTRY_NAME":"Thailand","STATUS":"Provincial capital","POP_RANK":7,"POP_CLASS":"Less than 50,000","PORT_ID":0,"LABEL_FLAG":1}},{"type":"Feature","id":235,"geometry":{"type":"Point","coordinates":[103.11200162372083,14.995998064995135]},"properties":{"FID":235,"CITY_NAME":"Buriram","GMI_ADMIN":"THA-BRR","ADMIN_NAME":"Buriram","FIPS_CNTRY":"TH","CNTRY_NAME":"Thailand","STATUS":"Provincial capital","POP_RANK":7,"POP_CLASS":"Less than 50,000","PORT_ID":0,"LABEL_FLAG":1}},{"type":"Feature","id":236,"geometry":{"type":"Point","coordinates":[102.10200362278019,14.968998064969995]},"properties":{"FID":236,"CITY_NAME":"Nakhon Ratchasima","GMI_ADMIN":"THA-NRT","ADMIN_NAME":"Nakhon Ratchasima","FIPS_CNTRY":"TH","CNTRY_NAME":"Thailand","STATUS":"Provincial capital","POP_RANK":5,"POP_CLASS":"100,000 to 250,000","PORT_ID":0,"LABEL_FLAG":1}},{"type":"Feature","id":237,"geometry":{"type":"Point","coordinates":[103.49700362407938,14.886000064892698]},"properties":{"FID":237,"CITY_NAME":"Surin","GMI_ADMIN":"THA-SUR","ADMIN_NAME":"Surin","FIPS_CNTRY":"TH","CNTRY_NAME":"Thailand","STATUS":"Provincial capital","POP_RANK":7,"POP_CLASS":"Less than 50,000","PORT_ID":0,"LABEL_FLAG":1}},{"type":"Feature","id":238,"geometry":{"type":"Point","coordinates":[104.96670362544816,13.816701063896829]},"properties":{"FID":238,"CITY_NAME":"Phnum Tbeng Meanchey","GMI_ADMIN":"KHM-PVI","ADMIN_NAME":"Preah Vihear","FIPS_CNTRY":"CB","CNTRY_NAME":"Cambodia","STATUS":"Provincial capital","POP_RANK":7,"POP_CLASS":"Less than 50,000","PORT_ID":0,"LABEL_FLAG":0}},{"type":"Feature","id":239,"geometry":{"type":"Point","coordinates":[105.9740016263863,13.523004063623304]},"properties":{"FID":239,"CITY_NAME":"Stoeng Treng","GMI_ADMIN":"KHM-STR","ADMIN_NAME":"Stoeng Treng","FIPS_CNTRY":"CB","CNTRY_NAME":"Cambodia","STATUS":"Provincial capital","POP_RANK":7,"POP_CLASS":"Less than 50,000","PORT_ID":0,"LABEL_FLAG":1}},{"type":"Feature","id":240,"geometry":{"type":"Point","coordinates":[104.88899762537577,12.711996062867996]},"properties":{"FID":240,"CITY_NAME":"Kampong Thum","GMI_ADMIN":"KHM-KTH","ADMIN_NAME":"Kampong Thum","FIPS_CNTRY":"CB","CNTRY_NAME":"Cambodia","STATUS":"Provincial capital","POP_RANK":7,"POP_CLASS":"Less than 50,000","PORT_ID":0,"LABEL_FLAG":1}},{"type":"Feature","id":241,"geometry":{"type":"Point","coordinates":[106.02399662643282,12.468996062641693]},"properties":{"FID":241,"CITY_NAME":"Kracheh","GMI_ADMIN":"KHM-KRC","ADMIN_NAME":"Kracheh","FIPS_CNTRY":"CB","CNTRY_NAME":"Cambodia","STATUS":"Provincial capital","POP_RANK":7,"POP_CLASS":"Less than 50,000","PORT_ID":0,"LABEL_FLAG":1}},{"type":"Feature","id":242,"geometry":{"type":"Point","coordinates":[104.66399762516622,12.257001062444246]},"properties":{"FID":242,"CITY_NAME":"Kampong Chnang","GMI_ADMIN":"KHM-KCN","ADMIN_NAME":"Kampong Chhnang","FIPS_CNTRY":"CB","CNTRY_NAME":"Cambodia","STATUS":"Provincial capital","POP_RANK":7,"POP_CLASS":"Less than 50,000","PORT_ID":0,"LABEL_FLAG":0}},{"type":"Feature","id":243,"geometry":{"type":"Point","coordinates":[105.46499762591222,11.990997062196513]},"properties":{"FID":243,"CITY_NAME":"Kampong Cham","GMI_ADMIN":"KHM-KCH","ADMIN_NAME":"Kampong Cham","FIPS_CNTRY":"CB","CNTRY_NAME":"Cambodia","STATUS":"Provincial capital","POP_RANK":7,"POP_CLASS":"Less than 50,000","PORT_ID":0,"LABEL_FLAG":1}},{"type":"Feature","id":244,"geometry":{"type":"Point","coordinates":[104.9131896253983,11.564739061799528]},"properties":{"FID":244,"CITY_NAME":"Phnom Penh","GMI_ADMIN":"KHM-PPE","ADMIN_NAME":"Phnum Penh","FIPS_CNTRY":"CB","CNTRY_NAME":"Cambodia","STATUS":"National and provincial capital","POP_RANK":3,"POP_CLASS":"500,000 to 1,000,000","PORT_ID":0,"LABEL_FLAG":0}},{"type":"Feature","id":245,"geometry":{"type":"Point","coordinates":[105.32400362578093,11.484000061724331]},"properties":{"FID":245,"CITY_NAME":"Prey Veng","GMI_ADMIN":"KHM-PVE","ADMIN_NAME":"Prey Veng","FIPS_CNTRY":"CB","CNTRY_NAME":"Cambodia","STATUS":"Provincial capital","POP_RANK":7,"POP_CLASS":"Less than 50,000","PORT_ID":0,"LABEL_FLAG":1}},{"type":"Feature","id":246,"geometry":{"type":"Point","coordinates":[104.51899862503117,11.45199606169453]},"properties":{"FID":246,"CITY_NAME":"Kampong Spoe","GMI_ADMIN":"KHM-KSP","ADMIN_NAME":"Kampong Spoe","FIPS_CNTRY":"CB","CNTRY_NAME":"Cambodia","STATUS":"Provincial capital","POP_RANK":7,"POP_CLASS":"Less than 50,000","PORT_ID":0,"LABEL_FLAG":1}},{"type":"Feature","id":247,"geometry":{"type":"Point","coordinates":[106.1469996265474,11.322999061574393]},"properties":{"FID":247,"CITY_NAME":"Tay Ninh","GMI_ADMIN":"VNM-TNI","ADMIN_NAME":"Tay Ninh","FIPS_CNTRY":"VM","CNTRY_NAME":"Vietnam","STATUS":"Provincial capital","POP_RANK":7,"POP_CLASS":"Less than 50,000","PORT_ID":0,"LABEL_FLAG":1}},{"type":"Feature","id":248,"geometry":{"type":"Point","coordinates":[103.36670162395805,19.33329606903456]},"properties":{"FID":248,"CITY_NAME":"Xiangkhoang","GMI_ADMIN":"LAO-XNG","ADMIN_NAME":"Xiangkhoang","FIPS_CNTRY":"LA","CNTRY_NAME":"Laos","STATUS":"Provincial capital","POP_RANK":7,"POP_CLASS":"Less than 50,000","PORT_ID":0,"LABEL_FLAG":1}},{"type":"Feature","id":249,"geometry":{"type":"Point","coordinates":[101.48400062220466,19.195002068905765]},"properties":{"FID":249,"CITY_NAME":"Muang Xaignabouri","GMI_ADMIN":"LAO-XGN","ADMIN_NAME":"Xaignabouri","FIPS_CNTRY":"LA","CNTRY_NAME":"Laos","STATUS":"Provincial capital","POP_RANK":7,"POP_CLASS":"Less than 50,000","PORT_ID":0,"LABEL_FLAG":0}},{"type":"Feature","id":250,"geometry":{"type":"Point","coordinates":[102.68023562331874,18.001737067794451]},"properties":{"FID":250,"CITY_NAME":"Vientiane","GMI_ADMIN":"LAO-VNG","ADMIN_NAME":"Viangchan","FIPS_CNTRY":"LA","CNTRY_NAME":"Laos","STATUS":"National and provincial capital","POP_RANK":4,"POP_CLASS":"250,000 to 500,000","PORT_ID":0,"LABEL_FLAG":1}},{"type":"Feature","id":251,"geometry":{"type":"Point","coordinates":[102.74699762338091,17.883999067684798]},"properties":{"FID":251,"CITY_NAME":"Nong Khai","GMI_ADMIN":"THA-NKH","ADMIN_NAME":"Nong Khai","FIPS_CNTRY":"TH","CNTRY_NAME":"Thailand","STATUS":"Provincial capital","POP_RANK":7,"POP_CLASS":"Less than 50,000","PORT_ID":0,"LABEL_FLAG":1}},{"type":"Feature","id":252,"geometry":{"type":"Point","coordinates":[101.73500162243838,17.489997067317859]},"properties":{"FID":252,"CITY_NAME":"Loei","GMI_ADMIN":"THA-LOE","ADMIN_NAME":"Loei","FIPS_CNTRY":"TH","CNTRY_NAME":"Thailand","STATUS":"Provincial capital","POP_RANK":7,"POP_CLASS":"Less than 50,000","PORT_ID":0,"LABEL_FLAG":1}},{"type":"Feature","id":253,"geometry":{"type":"Point","coordinates":[102.78999962342093,17.406999067240562]},"properties":{"FID":253,"CITY_NAME":"Udon Thani","GMI_ADMIN":"THA-UTA","ADMIN_NAME":"Udon Thani","FIPS_CNTRY":"TH","CNTRY_NAME":"Thailand","STATUS":"Provincial capital","POP_RANK":6,"POP_CLASS":"50,000 to 100,000","PORT_ID":0,"LABEL_FLAG":1}},{"type":"Feature","id":254,"geometry":{"type":"Point","coordinates":[106.33302962672067,20.450304070074864]},"properties":{"FID":254,"CITY_NAME":"Thai Binh","GMI_ADMIN":"VNM-TBI","ADMIN_NAME":"Thai Binh","FIPS_CNTRY":"VM","CNTRY_NAME":"Vietnam","STATUS":"Provincial capital","POP_RANK":6,"POP_CLASS":"50,000 to 100,000","PORT_ID":0,"LABEL_FLAG":1}},{"type":"Feature","id":255,"geometry":{"type":"Point","coordinates":[105.21099962567567,21.817998071348626]},"properties":{"FID":255,"CITY_NAME":"Tuyen Quang","GMI_ADMIN":"VNM-TQN","ADMIN_NAME":"Tuyen Quang","FIPS_CNTRY":"VM","CNTRY_NAME":"Vietnam","STATUS":"Provincial capital","POP_RANK":7,"POP_CLASS":"Less than 50,000","PORT_ID":0,"LABEL_FLAG":1}},{"type":"Feature","id":256,"geometry":{"type":"Point","coordinates":[104.87500262536278,21.705003071243382]},"properties":{"FID":256,"CITY_NAME":"Yen Bai","GMI_ADMIN":"VNM-YBA","ADMIN_NAME":"Yen Bai","FIPS_CNTRY":"VM","CNTRY_NAME":"Vietnam","STATUS":"Provincial capital","POP_RANK":6,"POP_CLASS":"50,000 to 100,000","PORT_ID":0,"LABEL_FLAG":1}},{"type":"Feature","id":257,"geometry":{"type":"Point","coordinates":[105.8630046262829,21.551004071099968]},"properties":{"FID":257,"CITY_NAME":"Thai Nguyen","GMI_ADMIN":"VNM-BTH","ADMIN_NAME":"Bac Thai","FIPS_CNTRY":"VM","CNTRY_NAME":"Vietnam","STATUS":"Provincial capital","POP_RANK":5,"POP_CLASS":"100,000 to 250,000","PORT_ID":0,"LABEL_FLAG":0}},{"type":"Feature","id":258,"geometry":{"type":"Point","coordinates":[105.42799862587779,21.304998070870852]},"properties":{"FID":258,"CITY_NAME":"Viet Tri","GMI_ADMIN":"VNM-VPH","ADMIN_NAME":"Vinh Phu","FIPS_CNTRY":"VM","CNTRY_NAME":"Vietnam","STATUS":"Provincial capital","POP_RANK":6,"POP_CLASS":"50,000 to 100,000","PORT_ID":0,"LABEL_FLAG":0}},{"type":"Feature","id":259,"geometry":{"type":"Point","coordinates":[105.82000262624288,21.03000307061474]},"properties":{"FID":259,"CITY_NAME":"Hanoi","GMI_ADMIN":"VNM-HNO","ADMIN_NAME":"Ha Noi","FIPS_CNTRY":"VM","CNTRY_NAME":"Vietnam","STATUS":"National capital and provincial capital enclave","POP_RANK":2,"POP_CLASS":"1,000,000 to 5,000,000","PORT_ID":0,"LABEL_FLAG":0}},{"type":"Feature","id":260,"geometry":{"type":"Point","coordinates":[105.3330036257893,20.829996070428479]},"properties":{"FID":260,"CITY_NAME":"Hoa Binh","GMI_ADMIN":"VNM-HBN","ADMIN_NAME":"Hoa Binh","FIPS_CNTRY":"VM","CNTRY_NAME":"Vietnam","STATUS":"Provincial capital","POP_RANK":6,"POP_CLASS":"50,000 to 100,000","PORT_ID":0,"LABEL_FLAG":1}},{"type":"Feature","id":261,"geometry":{"type":"Point","coordinates":[105.97500062638719,20.252997069891109]},"properties":{"FID":261,"CITY_NAME":"Ninh Binh","GMI_ADMIN":"VNM-NBN","ADMIN_NAME":"Ninh Binh","FIPS_CNTRY":"VM","CNTRY_NAME":"Vietnam","STATUS":"Provincial capital","POP_RANK":7,"POP_CLASS":"Less than 50,000","PORT_ID":0,"LABEL_FLAG":1}},{"type":"Feature","id":262,"geometry":{"type":"Point","coordinates":[105.77700062620281,19.809000069477605]},"properties":{"FID":262,"CITY_NAME":"Thanh Hoa","GMI_ADMIN":"VNM-THO","ADMIN_NAME":"Thanh Hoa","FIPS_CNTRY":"VM","CNTRY_NAME":"Vietnam","STATUS":"Provincial capital","POP_RANK":6,"POP_CLASS":"50,000 to 100,000","PORT_ID":0,"LABEL_FLAG":1}},{"type":"Feature","id":263,"geometry":{"type":"Point","coordinates":[106.7570016271155,21.845997071374697]},"properties":{"FID":263,"CITY_NAME":"Lang Son","GMI_ADMIN":"VNM-LSO","ADMIN_NAME":"Lang Son","FIPS_CNTRY":"VM","CNTRY_NAME":"Vietnam","STATUS":"Provincial capital","POP_RANK":7,"POP_CLASS":"Less than 50,000","PORT_ID":0,"LABEL_FLAG":1}},{"type":"Feature","id":264,"geometry":{"type":"Point","coordinates":[106.19199962658931,21.270996070839189]},"properties":{"FID":264,"CITY_NAME":"Phu Lang Thuong","GMI_ADMIN":"VNM-HBA","ADMIN_NAME":"Ha Bac","FIPS_CNTRY":"VM","CNTRY_NAME":"Vietnam","STATUS":"Provincial capital","POP_RANK":7,"POP_CLASS":"Less than 50,000","PORT_ID":0,"LABEL_FLAG":0}},{"type":"Feature","id":265,"geometry":{"type":"Point","coordinates":[106.33100462671874,20.942001070532783]},"properties":{"FID":265,"CITY_NAME":"Hai Duong","GMI_ADMIN":"VNM-HHU","ADMIN_NAME":"Hai Hung","FIPS_CNTRY":"VM","CNTRY_NAME":"Vietnam","STATUS":"Provincial capital","POP_RANK":6,"POP_CLASS":"50,000 to 100,000","PORT_ID":0,"LABEL_FLAG":0}},{"type":"Feature","id":266,"geometry":{"type":"Point","coordinates":[106.67979062704362,20.861352070457684]},"properties":{"FID":266,"CITY_NAME":"Haiphong","GMI_ADMIN":"VNM-HPH","ADMIN_NAME":"Hai Phong","FIPS_CNTRY":"VM","CNTRY_NAME":"Vietnam","STATUS":"Other","POP_RANK":4,"POP_CLASS":"250,000 to 500,000","PORT_ID":57680,"LABEL_FLAG":0}},{"type":"Feature","id":267,"geometry":{"type":"Point","coordinates":[107.13330062746596,16.84999806672181]},"properties":{"FID":267,"CITY_NAME":"Dong Ha","GMI_ADMIN":"VNM-QTR","ADMIN_NAME":"Quang Tri","FIPS_CNTRY":"VM","CNTRY_NAME":"Vietnam","STATUS":"Provincial capital","POP_RANK":7,"POP_CLASS":"Less than 50,000","PORT_ID":0,"LABEL_FLAG":0}},{"type":"Feature","id":268,"geometry":{"type":"Point","coordinates":[107.58500162788661,16.462998066361394]},"properties":{"FID":268,"CITY_NAME":"Hue","GMI_ADMIN":"VNM-TTH","ADMIN_NAME":"Thua Thien Hue","FIPS_CNTRY":"VM","CNTRY_NAME":"Vietnam","STATUS":"Provincial capital","POP_RANK":5,"POP_CLASS":"100,000 to 250,000","PORT_ID":0,"LABEL_FLAG":0}},{"type":"Feature","id":269,"geometry":{"type":"Point","coordinates":[108.21500162847335,16.052004065978622]},"properties":{"FID":269,"CITY_NAME":"Da Nang","GMI_ADMIN":"VNM-QND","ADMIN_NAME":"Quang Nam-Da Nang","FIPS_CNTRY":"VM","CNTRY_NAME":"Vietnam","STATUS":"Provincial capital","POP_RANK":4,"POP_CLASS":"250,000 to 500,000","PORT_ID":57650,"LABEL_FLAG":0}},{"type":"Feature","id":270,"geometry":{"type":"Point","coordinates":[108.81199862902938,15.123996065114355]},"properties":{"FID":270,"CITY_NAME":"Quang Ngai","GMI_ADMIN":"VNM-QNG","ADMIN_NAME":"Quang Ngai","FIPS_CNTRY":"VM","CNTRY_NAME":"Vietnam","STATUS":"Provincial capital","POP_RANK":5,"POP_CLASS":"100,000 to 250,000","PORT_ID":0,"LABEL_FLAG":1}},{"type":"Feature","id":271,"geometry":{"type":"Point","coordinates":[108.01500362828713,14.349996064393508]},"properties":{"FID":271,"CITY_NAME":"Kon Tum","GMI_ADMIN":"VNM-KTM","ADMIN_NAME":"Kon Tum","FIPS_CNTRY":"VM","CNTRY_NAME":"Vietnam","STATUS":"Provincial capital","POP_RANK":7,"POP_CLASS":"Less than 50,000","PORT_ID":0,"LABEL_FLAG":1}},{"type":"Feature","id":272,"geometry":{"type":"Point","coordinates":[108.01666862828867,13.950000064020983]},"properties":{"FID":272,"CITY_NAME":"Play Cu","GMI_ADMIN":"VNM-GLA","ADMIN_NAME":"Gia Lai","FIPS_CNTRY":"VM","CNTRY_NAME":"Vietnam","STATUS":"Provincial capital","POP_RANK":6,"POP_CLASS":"50,000 to 100,000","PORT_ID":0,"LABEL_FLAG":0}},{"type":"Feature","id":273,"geometry":{"type":"Point","coordinates":[109.23332462942173,13.766661063850236]},"properties":{"FID":273,"CITY_NAME":"Qui Nhon","GMI_ADMIN":"VNM-BDN","ADMIN_NAME":"Binh Dinh","FIPS_CNTRY":"VM","CNTRY_NAME":"Vietnam","STATUS":"Provincial capital","POP_RANK":5,"POP_CLASS":"100,000 to 250,000","PORT_ID":0,"LABEL_FLAG":0}},{"type":"Feature","id":274,"geometry":{"type":"Point","coordinates":[106.9810026273241,13.507002063608411]},"properties":{"FID":274,"CITY_NAME":"Lumphat","GMI_ADMIN":"KHM-RTN","ADMIN_NAME":"Rotanokiri","FIPS_CNTRY":"CB","CNTRY_NAME":"Cambodia","STATUS":"Provincial capital","POP_RANK":7,"POP_CLASS":"Less than 50,000","PORT_ID":0,"LABEL_FLAG":0}},{"type":"Feature","id":275,"geometry":{"type":"Point","coordinates":[109.31599862949875,13.082004063212594]},"properties":{"FID":275,"CITY_NAME":"Tuy Hoa","GMI_ADMIN":"VNM-PYN","ADMIN_NAME":"Phu Yen","FIPS_CNTRY":"VM","CNTRY_NAME":"Vietnam","STATUS":"Provincial capital","POP_RANK":7,"POP_CLASS":"Less than 50,000","PORT_ID":0,"LABEL_FLAG":0}},{"type":"Feature","id":276,"geometry":{"type":"Point","coordinates":[108.05000462831973,12.666663062825776]},"properties":{"FID":276,"CITY_NAME":"Buon Me Thuot","GMI_ADMIN":"VNM-DLA","ADMIN_NAME":"Dac Lac","FIPS_CNTRY":"VM","CNTRY_NAME":"Vietnam","STATUS":"Provincial capital","POP_RANK":6,"POP_CLASS":"50,000 to 100,000","PORT_ID":0,"LABEL_FLAG":0}},{"type":"Feature","id":277,"geometry":{"type":"Point","coordinates":[107.19999962752806,12.449997062623993]},"properties":{"FID":277,"CITY_NAME":"Senmonorom","GMI_ADMIN":"KHM-MKI","ADMIN_NAME":"Mondol Kiri","FIPS_CNTRY":"CB","CNTRY_NAME":"Cambodia","STATUS":"Provincial capital","POP_RANK":7,"POP_CLASS":"Less than 50,000","PORT_ID":0,"LABEL_FLAG":0}},{"type":"Feature","id":278,"geometry":{"type":"Point","coordinates":[109.20300362939352,12.242997062431215]},"properties":{"FID":278,"CITY_NAME":"Nha Trang","GMI_ADMIN":"VNM-KHO","ADMIN_NAME":"Khanh Hoa","FIPS_CNTRY":"VM","CNTRY_NAME":"Vietnam","STATUS":"Provincial capital","POP_RANK":5,"POP_CLASS":"100,000 to 250,000","PORT_ID":57620,"LABEL_FLAG":0}},{"type":"Feature","id":279,"geometry":{"type":"Point","coordinates":[108.44199962868478,11.944998062153672]},"properties":{"FID":279,"CITY_NAME":"Da Lat","GMI_ADMIN":"VNM-LDO","ADMIN_NAME":"Lam Dong","FIPS_CNTRY":"VM","CNTRY_NAME":"Vietnam","STATUS":"Provincial capital","POP_RANK":5,"POP_CLASS":"100,000 to 250,000","PORT_ID":0,"LABEL_FLAG":0}},{"type":"Feature","id":280,"geometry":{"type":"Point","coordinates":[103.46670062405119,4.2499980549871452]},"properties":{"FID":280,"CITY_NAME":"Kemaman Harbor","GMI_ADMIN":"MYS-TRN","ADMIN_NAME":"Terengganu","FIPS_CNTRY":"MY","CNTRY_NAME":"Malaysia","STATUS":"Other","POP_RANK":7,"POP_CLASS":"Less than 50,000","PORT_ID":57416,"LABEL_FLAG":0}},{"type":"Feature","id":281,"geometry":{"type":"Point","coordinates":[103.33330262392693,3.7999980545680501]},"properties":{"FID":281,"CITY_NAME":"Kuantan New Port","GMI_ADMIN":"MYS-PHN","ADMIN_NAME":"Pahang","FIPS_CNTRY":"MY","CNTRY_NAME":"Malaysia","STATUS":"Other","POP_RANK":5,"POP_CLASS":"100,000 to 250,000","PORT_ID":57410,"LABEL_FLAG":0}},{"type":"Feature","id":282,"geometry":{"type":"Point","coordinates":[108.10400462837001,10.9209960612]},"properties":{"FID":282,"CITY_NAME":"Phan Thiet","GMI_ADMIN":"VNM-BTN","ADMIN_NAME":"Binh Thuan","FIPS_CNTRY":"VM","CNTRY_NAME":"Vietnam","STATUS":"Provincial capital","POP_RANK":5,"POP_CLASS":"100,000 to 250,000","PORT_ID":0,"LABEL_FLAG":0}},{"type":"Feature","id":283,"geometry":{"type":"Point","coordinates":[103.14099962374783,5.3250030559883257]},"properties":{"FID":283,"CITY_NAME":"Kuala Terengganu","GMI_ADMIN":"MYS-TRN","ADMIN_NAME":"Terengganu","FIPS_CNTRY":"MY","CNTRY_NAME":"Malaysia","STATUS":"Provincial capital","POP_RANK":5,"POP_CLASS":"100,000 to 250,000","PORT_ID":57420,"LABEL_FLAG":0}},{"type":"Feature","id":284,"geometry":{"type":"Point","coordinates":[102.04200062272432,4.1840010549256803]},"properties":{"FID":284,"CITY_NAME":"Kuala Lipis","GMI_ADMIN":"MYS-PHN","ADMIN_NAME":"Pahang","FIPS_CNTRY":"MY","CNTRY_NAME":"Malaysia","STATUS":"Provincial capital","POP_RANK":7,"POP_CLASS":"Less than 50,000","PORT_ID":0,"LABEL_FLAG":0}},{"type":"Feature","id":285,"geometry":{"type":"Point","coordinates":[101.70800162241326,3.1500000539626924]},"properties":{"FID":285,"CITY_NAME":"Kuala Lumpur","GMI_ADMIN":"MYS-KLL","ADMIN_NAME":"Kuala Lumpur","FIPS_CNTRY":"MY","CNTRY_NAME":"Malaysia","STATUS":"National and provincial capital","POP_RANK":3,"POP_CLASS":"500,000 to 1,000,000","PORT_ID":0,"LABEL_FLAG":1}},